stop_id,stop_code,stop_name,stop_desc,stop_lat,stop_lon,zone_id,stop_url,location_type,parent_station
27,907933,HAMILTON E HOLMES STATION,STONEHURST PL,33.754627,-84.468041,,,,
28,908023,WEST LAKE STATION,CSX TRANSPORTATION & ANDERSON AVE SW,33.752888,-84.446654,,,,
39,907906,WEST LAKE STATION,CSX TRANSPORTATION & ANDERSON AVE SW,33.75347,-84.446503,,,,
40,907907,HAMILTON E HOLMES STATION,CSX TRANSPORTATION & GA-280,33.754555,-84.467867,,,,
53,908051,DUNWOODY STATION,HAMMOND DR NE & UNNAMED,33.920638,-84.344736,,,,
57,908054,LINDBERGH  CENTER STATION,MOROSGO DR NE,33.823617,-84.36927,,,,
58,908055,LINDBERGH  CENTER STATION,MOROSGO DR NE,33.823608,-84.369226,,,,
61,908047,DUNWOODY STATION,HAMMOND DR NE & UNNAMED,33.920638,-84.344736,,,,
83,908186,BROOKHAVEN -OGLETHORPE STATION,DRESDEN DR NE & LENOX RD NE,33.860615,-84.338831,,,,
84,908187,BROOKHAVEN -OGLETHORPE STATION,DRESDEN DR NE & LENOX RD NE,33.860615,-84.338853,,,,
111,906369,ARTS CENTER STATION,0 PEACHTREE & 15TH,33.789283,-84.387125,,,,
112,906370,ARTS CENTER STATION,0 PEACHTREE & 15TH,33.789283,-84.387125,,,,
133,908374,MIDTOWN  STATION,PEACHTREE PL NE & PEACHTREE WALK NE,33.780737,-84.386657,,,,
134,908375,MIDTOWN STATION,PEACHTREE PL NE & PEACHTREE WALK NE,33.780737,-84.386657,,,,
185,908566,EAST LAKE STATION,GEORGIA & GRANT ST SE,33.765062,-84.312611,,,,
186,908567,EAST LAKE STATION,GEORGIA & GRANT ST SE,33.765062,-84.312611,,,,
193,908475,DECATUR STATION,N MCDONOUGH ST & GRANT ST SE,33.774449,-84.296907,,,,
195,908476,EDGEWOOD-CANDLER PARK STATION,GEORGIA & OAKDALE RD NE,33.761544,-84.340032,,,,
198,908618,GEORGIA STATE STATION,GEORGIA & BUTLER ST SE,33.749866,-84.385404,,,,
201,908696,GEORGIA STATE STATION,GEORGIA & BUTLER ST SE,33.749866,-84.385404,,,,
204,908699,EDGEWOOD-CANDLER PARK STATION,GEORGIA & OAKDALE RD NE,33.761812,-84.340064,,,,
206,908700,DECATUR STATION,N MCDONOUGH ST & GRANT ST SE,33.77444,-84.296907,,,,
217,908628,EAST POINT STATION,DORSEY AVE & CSX TRANSPORTATION,33.676609,-84.440595,,,,
218,908629,LAKEWOOD- FT MCPHERSON  STATION,US-29 & MAIN ST,33.700629,-84.4293,,,,
219,908704,WEST END STATION,GA-154 & GA-139,33.73584,-84.412967,,,,
220,908705,WEST END STATION,GA-154 & GA-139,33.73584,-84.412967,,,,
221,908706,LAKEWOOD-FT MCPHERSON  STATION,US-29 & MAIN ST,33.700611,-84.4293,,,,
222,908707,EAST POINT STATION,DORSEY AVE & CSX TRANSPORTATION,33.676609,-84.440584,,,,
224,908709,KENSINGTON STATION,KENSINGTON RD & UNNAMED,33.772093,-84.252217,,,,
232,908634,KENSINGTON STATION,KENSINGTON RD & UNNAMED,33.772093,-84.252249,,,,
243,908717,LENOX STATION,NORFOLK SOUTHERN & LENOX RD NE,33.845137,-84.357854,,,,
244,908718,BUCKHEAD STATION,TURNER MCDONALD PKY & GA-141,33.847837,-84.367379,,,,
249,908639,BUCKHEAD STATION,TURNER MCDONALD PKY & GA-141,33.847837,-84.367368,,,,
250,906827,LENOX STATION,NORFOLK SOUTHERN & LENOX RD NE,33.845137,-84.357854,,,,
269,907960,BANKHEAD STATION,GA-8 & BANKHEAD HWY NW,33.771944,-84.428633,,,,
270,907961,BANKHEAD STATION,GA-8 & BANKHEAD HWY NW,33.771944,-84.428623,,,,
280,907913,NORTH AVENUE STATION,W PEACHTREE ST NW & GA-8,33.771705,-84.387411,,,,
281,907914,NORTH AVENUE STATION,W PEACHTREE ST NW & GA-8,33.771696,-84.387411,,,,
355,906311,HOWELL MILL RD@KIPLING DR,HOWELL MILL RD NW & KIPLING DR NW,33.813522,-84.41485,,,,
375,908862,DORAVILLE STATION,SOUTHERN & UNNAMED,33.902993,-84.28086,,,,
384,908845,DORAVILLE STATION,SOUTHERN & UNNAMED,33.902966,-84.280893,,,,
394,908872,MEDICAL CENTER STATION,LAKE HEARN DR NE & PEACHTREE DUNWOODY RD NE,33.912296,-84.351237,,,,
399,908885,MEDICAL CENTER STATION,LAKE HEARN DR NE & PEACHTREE DUNWOODY RD NE,33.912323,-84.351313,,,,
429,908911,CIVIC CENTER STATION,W PEACHTREE ST NW & GA-401,33.766245,-84.387504,,,,
430,908912,CIVIC CENTER STATION,W PEACHTREE ST NW & GA-401,33.766236,-84.387504,,,,
470,908958,VINE CITY STATION,ELECTRIC AVE NW & LENA ST NW,33.756612,-84.404348,,,,
471,908959,VINE CITY STATION,ELECTRIC AVE NW & LENA ST NW,33.756595,-84.404348,,,,
485,908963,ASHBY STATION,JOSEPH E LOWERY BLVD NW & LENA ST NW,33.756343,-84.417556,,,,
486,908964,ASHBY STATION,JOSEPH E LOWERY BLVD NW & LENA ST NW,33.756289,-84.417556,,,,
693,908301,OAKLAND CITY STATION,GA-154 & GA-139,33.717264,-84.425279,,,,
694,908302,OAKLAND CITY STATION,NORFOLK SOUTHERN & CAMPBELLTON RD SW,33.717417,-84.424921,,,,
730,908480,NORTH SPRINGS STATION,UNNAMED & UNNAMED,33.945433,-84.357395,,,,
796,908435,DOME-GWCC-PHILIPS ARENA-CNN STATION,NORFOLK SOUTHERN & ANDREW YOUNG INTERNATIONAL BLVD NW,33.75633,-84.397759,,,,
797,908981,FIVE POINTS STATION,GEORGIA & PEACHTREE ST SW,33.753962,-84.391549,,,,
798,908436,KING MEMORIAL STATION,GEORGIA & GRANT ST SE,33.749468,-84.376011,,,,
799,908437,INMAN PARK-REYNOLDSTOWN  STATION,GEORGIA & GRANT ST SE,33.757317,-84.35262,,,,
800,908438,AVONDALE STATION,GEORGIA & SAMS XING,33.77533,-84.280715,,,,
801,908515,INDIAN CREEK STATION,UNNAMED & UNNAMED,33.769212,-84.229255,,,,
802,908516,INDIAN CREEK STATION,UNNAMED & UNNAMED,33.769212,-84.229255,,,,
803,908691,AVONDALE STATION,GEORGIA & SAMS XING,33.77533,-84.280715,,,,
804,908692,INMAN PARK -REYNOLDSTOWN STATION,GEORGIA & GRANT ST SE,33.757317,-84.35262,,,,
805,908693,KING MEMORIAL STATION,GEORGIA & GRANT ST SE,33.749468,-84.376011,,,,
806,908990,FIVE POINTS STATION,GEORGIA & PEACHTREE ST SW,33.753962,-84.391549,,,,
807,908694,DOME-GWCC-PHILIPS ARENA-CNN STATION,NORFOLK SOUTHERN & ANDREW YOUNG INTERNATIONAL BLVD NW,33.756348,-84.397759,,,,
808,908695,AIRPORT STATION,S TERMINAL PKY & HARTSFIELD INTERNATIONAL AIRPORT,33.639864,-84.446284,,,,
809,908599,COLLEGE PARK STATION,UNNAMED & HARTSFIELD INTERNATIONAL AIRPORT,33.65082,-84.448027,,,,
810,908600,GARNETT STATION,GARNETT ST SW & FORSYTH ST SW,33.748929,-84.395513,,,,
811,908986,FIVE POINTS STATION,GEORGIA & FORSYTH ST NW,33.754061,-84.391539,,,,
812,908601,PEACHTREE CENTER STATION,PEACHTREE ST NE & ELLIS ST NW,33.759541,-84.387564,,,,
813,908602,LINDBERGH POCKET,MOROSGO DR NE & HARTSFIELD INTERNATIONAL AIRPORT,33.823456,-84.369292,,,,
814,908603,CHAMBLEE STATION,SOUTHERN & LENOX RD NE,33.887911,-84.305949,,,,
815,908604,CHAMBLEE STATION,SOUTHERN & LENOX RD NE,33.887911,-84.305949,,,,
816,908605,LINDBERGH POCKET,MOROSGO DR NE & OAKDALE RD NE,33.823617,-84.369226,,,,
817,907842,PEACHTREE CENTER STATION,PEACHTREE ST NE & ELLIS ST NW,33.759532,-84.387564,,,,
818,908976,FIVE POINTS STATION,GEORGIA & FORSYTH ST NW,33.753944,-84.39168,,,,
819,907843,GARNETT STATION,GARNETT ST SW & FORSYTH ST SW,33.748938,-84.395513,,,,
820,907844,COLLEGE PARK STATION,UNNAMED & HARTSFIELD INTERNATIONAL AIRPORT,33.65082,-84.448027,,,,
821,906647,AIRPORT STATION,S TERMINAL PKY & HARTSFIELD INTERNATIONAL AIRPORT,33.639622,-84.446283,,,,
822,907845,SANDY SPRINGS STATION,PERIMETER CTR W & UNNAMED,33.931358,-84.350906,,,,
823,907846,SANDY SPRINGS STATION,PERIMETER CTR W & UNNAMED,33.931358,-84.350917,,,,
824,907847,E-145 POCKET TRACK,GEORGIA & OAKDALE RD NE,33.762296,-84.3344,,,,
825,908606,E-145 POCKET TRACK,GEORGIA & OAKDALE RD NE,33.762296,-84.3344,,,,
1118,906837,AIRPORT STATION,S TERMINAL PKY & HARTSFIELD INTERNATIONAL AIRPORT,33.639864,-84.446316,,,,
9008,902632,MAIN ST@WINTHROPE PARK DR,0 MAIN & WINTHROPE PARK,34.089495,-84.294218,,,,
9012,902630,MAIN ST@379,,34.085826,-84.294957,,,,
9016,902631,MAIN ST@PINE GROVE DR,0 MAIN & PINE GROVE,34.08386,-84.294755,,,,
9020,900005,MAIN ST@PINE GROVE DR,0 MAIN & PINE GROVE,34.082292,-84.294607,,,,
9025,900006,MAIN ST@MAYFIELD RD,0 MAIN & MAYFIELD,34.080401,-84.29444,,,,
9030,900018,MAIN ST@CUMMING ST,0 MAIN & CUMMING,34.078152,-84.294291,,,,
9031,900007,MAIN ST@ACADEMY ST,0 MAIN & ACADEMY,34.076201,-84.294288,,,,
9034,900008,MAIN ST@VAUGHN DR,0 MAIN & VAUGHN,34.090788,-84.292399,,,,
9224,900010,MAIN ST@VAUGHN DR,0 MAIN & VAUGHN,34.091028,-84.292667,,,,
9226,900011,MAIN ST@PINE GROVE DR,0 MAIN & PINE GROVE,34.082476,-84.295051,,,,
10004,900012,WINDWARD PKY W@DEERFIELD PKWY,0 WINDWARD PKY W & DEERFIELD PKY,34.087866,-84.269172,,,,
10006,900013,WINDWARD PKY W@5532,,34.08755,-84.26518,,,,
10008,900014,WINDWARD PKY@NORTH POINT PKY,0 WINDWARD & NORTH POINT,34.08886,-84.2579,,,,
10010,902838,WINDWARD PKY@NORTH POINT PKY,0 WINDWARD & NORTH POINT,34.088403,-84.257398,,,,
10040,902839,MARTIN LUTHER KING J DR SW@OLLIE ST,0 MARTIN LUTHER KING JR DR NW & OLLIE ST NW,33.754809,-84.421186,,,,
10044,902840,NORTH POINT PKY@900,,34.08083,-84.25948,,,,
10046,902796,NORTH POINT PKY@960,,34.078413,-84.260238,,,,
10048,902797,NORTH POINT PKY@300,,34.08645,-84.25687,,,,
10054,902798,NORTH POINT PKY @ 960,,34.078179,-84.260646,,,,
10056,902799,NORTH POINT PKY @ WEBB BRIDGE RD,0 NORTH POINT & WEBB BRIDGE,34.076578,-84.260487,,,,
10134,902902,FAIR ST SW@NORTHSIDE DR SW,0 FAIR & NORTHSIDE,33.748929,-84.404936,,,,
10136,902975,WINDWARD PKY@DEERFIELD PKY,0 WINDWARD & DEERFIELD,34.088128,-84.270103,,,,
10142,906745,DEERFIELD PKY@MORRIS RD,,34.090648,-84.270141,,,,
10146,902976,WINDWARD PKY@5230,,34.092278,-84.276484,,,,
10148,902977,MAIN ST@WINDWARD PKY W,0 MAIN & WINDWARD,34.093848,-84.27914,,,,
10150,902978,MAIN ST@COGBURN RD,0 MAIN & COGBURN,34.092288,-84.285274,,,,
10168,902903,MAIN ST@684,,34.091726,-84.290431,,,,
10170,902904,MAIN ST@684,,34.091495,-84.290512,,,,
10172,902905,DEERFIELD PKY@MORRIS RD,0 DEERFIELD & MORRIS,34.090281,-84.269372,,,,
10174,902979,DEERFIELD PKY@WEBB RD,0 DEERFIELD & WEBB,34.092845,-84.270686,,,,
10176,902980,DEERFIELD PKY@WEBB RD,0 DEERFIELD & WEBB,34.09517,-84.268409,,,,
10186,902981,MAIN ST@WINDWARD PKY W,0 MAIN & WINDWARD,34.093963,-84.279531,,,,
10212,903045,MAIN ST@COGBURN RD,0 MAIN & COGBURN,34.092039,-84.285415,,,,
10214,903046,MAIN ST@CANTON ST,0 MAIN & CANTON,34.088795,-84.29524,,,,
10216,903047,MAIN ST@CANTON ST,0 MAIN & CANTON,34.08842,-84.29487,,,,
10244,902638,NORTH POINT PKY@500,,34.08513,-84.25732,,,,
10248,902639,WINDWARD PKY@WESTSIDE DR,0 WINDWARD PKY W & WESTSIDE PKY,34.087526,-84.268877,,,,
10250,903217,MORRIS RD@WEBB RD,0 MORRIS & WEBB,34.096603,-84.260478,,,,
10252,903218,MORRIS RD@13010,,34.094303,-84.262563,,,,
10256,903220,WINDWARD PKY W@MAIN ST,0 WINDWARD & MAIN,34.091776,-84.276628,,,,
10258,902640,WINDWARD PKY W@MAIN ST,0 WINDWARD & MAIN,34.09318,-84.277912,,,,
10266,902641,WINDWARD PARK & RIDE,200 NORTH POINT,34.087203,-84.258333,,,,
10268,902642,NORTH POINT PK@190,,34.08782,-84.25696,,,,
10270,902643,MORRIS RD @ 12395,,34.081045,-84.261163,,,,
10272,902644,WINDWARD PKY@5555,,34.08702,-84.26505,,,,
10274,902649,DEERFIELD PKY@WEBB RD,0 DEERFIELD & WEBB,34.09785,-84.26416,,,,
10276,902650,MORRIS RD@12726,,34.09106,-84.266782,,,,
14002,902765,ALPHARETTA HWY@HOUZE WAY,0 ALPHARETTA & HOUZE,34.046329,-84.339584,,,,
14004,902766,ALPHARETTA HWY@SUN VALLEY DR,0 ALPHARETTA HWY & SUN VALLEY DR,34.049871,-84.337741,,,,
14006,902771,ALPHARETTA HWY@11085,,34.050648,-84.33625,,,,
14009,902772,ALPHARETTA HWY@ELKINS RD,0 ALPHARETTA HWY & ELKINS RD,34.051974,-84.334347,,,,
14010,902773,ALPHARETTA HWY@MANSELL PL,0 ALPHARETTA & MANSELL,34.054226,-84.330254,,,,
14012,902774,ALPHARETTA HWY@11251,,34.055115,-84.329132,,,,
14014,902767,ALPHARETTA HWY@ROSEMONT PKY,0 ALPHARETTA & ROSEMONT,34.058438,-84.326409,,,,
14018,902768,ALPHARETTA HWY@HEMBREE RD,0 ALPHARETTA & HEMBREE,34.060596,-84.324478,,,,
14020,902769,ALPHARETTA HWY@HOSPITAL BLVD,0 ALPHARETTA & HOSPITAL,34.062603,-84.322716,,,,
14022,902770,ALPHARETTA HWY@NORTHMEADOW PKWY,0 ALPHARETTA & NORTHMEADOW,34.065643,-84.318581,,,,
14024,906278,ALPHARETTA HWY@HANEY DR,0 ALPHARETTA & HANEY,34.066032,-84.316254,,,,
14026,906279,ALPHARETTA HWY@WILLS RD,0 ALPHARETTA & WILLS,34.066277,-84.313118,,,,
14028,906281,ALPHARETTA HWY@HANEY DR,0 ALPHARETTA & HANEY,34.066383,-84.316063,,,,
14030,906295,ALPHARETTA HWY@UPPER HEMBREE RD,0 ALPHARETTA & UPPER HEMBREE,34.065865,-84.319,,,,
14032,906296,ALPHARETTA HWY@HOSPITAL BLVD,0 ALPHARETTA & HOSPITAL,34.06329,-84.322723,,,,
14034,906312,ALPHARETTA HWY@HEMBREE RD,0 ALPHARETTA & HEMBREE,34.061096,-84.324554,,,,
14038,906337,ALPHARETTA HWY@11450,,34.057182,-84.327896,,,,
14040,906338,ALPHARETTA HWY@11442,,34.055408,-84.329323,,,,
14042,906339,ALPHARETTA HWY@MANSELL PL,0 ALPHARETTA & MANSELL,34.053848,-84.331345,,,,
14043,906340,ALPHARETTA HWY@ELKINS RD,0 ALPHARETTA & ELKINS,34.051643,-84.335208,,,,
14046,906314,ALPHARETTA HWY@SUN VALLEY DR,0 ALPHARETTA & SUN VALLEY,34.049427,-84.338387,,,,
14048,906315,MAIN ST@571,,34.066363,-84.309818,,,,
15005,906317,NORCROSS ST@MARIETTA ST,0 NORCROSS & MARIETTA,34.072458,-84.294525,,,,
15007,906341,MAIN ST@BRADY PL,0 MAIN & BRADY,34.066297,-84.304719,,,,
15008,906342,MAIN ST@MAXWELL RD,0 MAIN & MAXWELL,34.067867,-84.301102,,,,
15009,906343,NORCROSS ST @ MARIETTA ST,0 NORCROSS & MARIETTA,34.072351,-84.294908,,,,
15010,906351,MAIN ST@MARIETTA ST,0 MAIN & MARIETTA,34.07295,-84.2951,,,,
15011,906318,MAIN ST@CUMMING ST,0 MAIN & CUMMING,34.078177,-84.29468,,,,
15012,906319,MAIN ST@MARIETTA ST,0 MAIN & MARIETTA,34.072947,-84.295646,,,,
15014,906320,MAIN ST@JANIS LN,0 MAIN & JANIS,34.069775,-84.298373,,,,
15015,903187,MAIN ST@DEVORE RD,0 MAIN & DEVORE,34.069068,-84.299451,,,,
15018,903188,NORTH POINT PKY@6360,6360 NORTH POINT PKY & CENTER BRIDGE RD,34.046681,-84.290142,,,,
15020,903189,NORTH POINT PKY@6250,6250 NORTH POINT PKY & N POINT MALL ENTRANCE RD,34.04694,-84.290338,,,,
15022,902705,MAIN ST@MAXWELL RD,0 MAIN & MAXWELL,34.068106,-84.301723,,,,
15026,902706,MAIN ST@JANIS LN,0 MAIN & JANIS,34.069866,-84.297493,,,,
15028,902707,HAYNES BRIDGE RD@11785,,34.056886,-84.286369,,,,
15030,902708,HAYNES BRIDGE RD@RAINWATER DR,0 HAYNES BRIDGE RD & RAINWATER DR,34.063717,-84.291553,,,,
15032,903190,HAYNES BRIDGE RD@DEVORE RD,0 HAYNES BRIDGE & DEVORE,34.066409,-84.292587,,,,
15036,903191,HAYNES BRIDGE RD@11770,,34.068882,-84.293925,,,,
15037,903192,HAYNES BRIDGE RD@DEVORE RD,0 HAYNES BRIDGE & DEVORE,34.066797,-84.293659,,,,
15040,902709,HAYNES BRIDGE RD@WOODHAVEN,0 HAYNES BRIDGE & WOODHAVEN,34.06391,-84.292224,,,,
15042,902710,HAYNES BRIDGE RD@MORRISON PKY,0 HAYNES BRIDGE & MORRISON,34.060412,-84.289472,,,,
15044,902711,ALPHARETTA HWY@ROSEMONT PKY,0 ALPHARETTA & ROSEMONT,34.058564,-84.326815,,,,
15048,902653,HAYNES BRIDGE RD@MORRISON PKY,0 HAYNES BRIDGE & MORRISON,34.061055,-84.289146,,,,
15054,902775,ACADEMY ST@HAYNES BRIDGE RD,0 ACADEMY & HAYNES BRIDGE,34.075399,-84.292976,,,,
15056,902817,HAYNES BRIDGE RD@11385,,34.057515,-84.287135,,,,
15058,902818,NORTH POINT PKY@6300,6300 NORTH POINT PKY & NORTH POINT CT,34.047504,-84.28929,,,,
15060,902819,NORTH POINT PKY@6751,6751 NORTH POINT PKY & POINT MALL ENTRANCE RD,34.044366,-84.298075,,,,
15062,902820,NORTH POINT PKY@NORTH POINT CT,0 NORTH POINT PKY & CENTER BRIDGE RD,34.047736,-84.288493,,,,
15066,902776,HAYNES BRIDGE RD@NORTH POINT DR,0 HAYNES BRIDGE & NORTH POINT,34.051343,-84.285479,,,,
15068,902777,HAYNES BRIDGE RD@11634,11634 HAYNES BRIDGE RD & NORTHWINDS PKY,34.058607,-84.287375,,,,
15070,902778,NORTH POINT PKY@ROYAL BLVDS,4800 NORTH POINT PKY & ROYAL BLVD S,34.054808,-84.273102,,,,
15072,902779,NORTH POINT PKY@ROYAL BLVD S,4800 NORTH POINT PKY & ROYAL BLVD S,34.054557,-84.273179,,,,
15074,902821,NORTH POINT PKY@GEORGIA LANE,0 NORTH POINT PKY & GEORGIA LN,34.04973,-84.283363,,,,
15076,902822,NORTH POINT PKY@KIMBALL BRIDGE RD,0 NORTH POINT PKY,34.049783,-84.281508,,,,
15078,902846,HAYNES BRIDGE RD@NORTH POINT DR,0 HAYNES BRIDGE & NORTH POINT,34.049964,-84.285986,,,,
15080,902847,NORTH POINT PKY@5055,5055 NORTH POINT & KIMBALL BRIDGE,34.054353,-84.276901,,,,
15082,902780,NORTH POINT PKY@5055,,34.054726,-84.277286,,,,
15084,902781,HAYNES BRIDGE RD@THOMPSON ST,0 HAYNES BRIDGE & THOMPSON,34.07236,-84.293587,,,,
15086,902948,NORTH POINT PKY@MILL CREEK AVE,0 NORTH POINT PKY & MILL CREEK AVE,34.049988,-84.280963,,,,
15088,902949,NORTH POINT PKY@NORTH POINT DR,0 NORTH POINT PKY & NORTH POINT DR,34.050212,-84.281017,,,,
15090,902950,NORTH POINT PKY@ROCK MILL RD,0 NORTH POINT & ROCK MILL,34.051814,-84.279206,,,,
15092,902951,NORTH POINT PKY@ROCK MILL RD,0 NORTH POINT PKY & ROCK MILL RD,34.052037,-84.279499,,,,
16010,902917,NORTH POINT PKY@ROYAL BLVD S,0 NORTH POINT & ROYAL,34.054603,-84.271739,,,,
16016,902918,NORTH POINT PKY@OLD MILTON PKY,0 NORTH POINT & OLD MILTON,34.067225,-84.261144,,,,
16018,902919,NORTH POINT PKY@PRESTON RIDGE RD,0 NORTH POINT & PRESTON RIDGE,34.071018,-84.256571,,,,
16020,902953,NORTH POINT PKY @ 3980,3980 NORTH POINT PKY & WEBB BRIDGE RD,34.069287,-84.260223,,,,
16022,902954,NORTH POINT PKY@3180,3200 NORTH POINT,34.074163,-84.257003,,,,
16023,902955,NORTH POINT PKY @ PRESTON RIDGE RD,0 NORTH POINT & PRESTON RIDGE,34.071684,-84.256765,,,,
16024,902920,NORTH POINT PKY @ 3180,,34.074037,-84.257706,,,,
16026,906734,NORTH POINT PKY@,,34.060519,-84.265895,,,,
16028,902921,NORTH POINT PKY@OLD MILTON PKY,0 NORTH POINT & OLD MILTON,34.06661,-84.262158,,,,
16030,902922,NORTH POINT PKY@3980,,34.068743,-84.260137,,,,
20010,903070,ATLANTA ST@OXBO RD,0 ATLANTA ST & OXBO RD,34.017725,-84.362093,,,,
20012,903071,ATLANTA ST@OAK ST,0 ATLANTA & OAK,34.01968,-84.361641,,,,
20014,903098,ALPHARETTA ST@ELIZABETH WAY,0 ALPHARETTA & ELIZABETH,34.024082,-84.360771,,,,
20016,903099,ALPHARETTA ST@NORCROSS ST,0 ALPHARETTA & NORCROSS,34.025188,-84.360458,,,,
20018,903100,ALPHARETTA ST@CHERRY ST,0 ALPHARETTA & CHERRY,34.027241,-84.358696,,,,
20020,903101,ALPHARETTA ST@WOODSTOCK ST,0 ALPHARETTA & WOODSTOCK,34.029003,-84.356476,,,,
20024,903072,ALPHARETTA ST@THOMAS DR,0 ALPHARETTA & THOMAS,34.031132,-84.352989,,,,
20026,903073,ALPHARETTA ST@1207,,34.032051,-84.351196,,,,
20028,903074,ALPHARETTA ST@ALPINE DR,0 ALPHARETTA & ALPINE,34.034595,-84.346985,,,,
20032,903075,ALPHARETTA ST@STRICKLAND RD,0 ALPHARETTA & STRICKLAND,34.031807,-84.352615,,,,
20036,903102,ALPHARETTA ST@WOODSTOCK ST,0 ALPHARETTA & WOODSTOCK,34.02964,-84.356026,,,,
20038,903103,ALPHARETTA ST@CHERRY ST,0 ALPHARETTA & CHERRY,34.028076,-84.358368,,,,
20040,903104,ALPHARETTA ST@GREEN ST,0 ALPHARETTA & GREEN,34.026226,-84.359932,,,,
20042,903105,ALPHARETTA ST@ELIZABETH WAY,0 ALPHARETTA & ELIZABETH,34.024113,-84.361099,,,,
20044,903166,ATLANTA ST@OXBO RD,0 ATLANTA & OXBO,34.017143,-84.362793,,,,
20046,902622,ATLANTA ST@OAK ST,0 ATLANTA & OAK,34.020451,-84.362053,,,,
20050,902623,ATLANTA ST@HILL ST,0 ATLANTA & HILL,34.021351,-84.361458,,,,
20052,902719,MAIN ST@PARK ST,0 MAIN & PARK,33.524877,-84.664778,,,,
20054,902720,ALPHARETTA ST@THOMAS DR,0 ALPHARETTA & THOMAS,34.030607,-84.353944,,,,
21009,902721,MANSELL RD@901,,34.042686,-84.336409,,,,
21010,902722,MANSELL RD@EAGLES CREST VILLAGE LN,0 MANSELL & EAGLES CREST VILLAGE,34.042439,-84.339508,,,,
21011,902624,MANSELL RD@WARSAW RD,0 MANSELL & WARSAW,34.042604,-84.330572,,,,
21012,902625,MANSELL RD@OLD ROSWELL RD,0 MANSELL RD & UNNAMED,34.041362,-84.3241,,,,
21014,902626,MANSELL RD@DUKE DR,0 MANSELL & DUKE,34.039996,-84.318926,,,,
21018,902627,MANSELL RD@WARSAW RD,0 MANSELL & WARSAW,34.042456,-84.328608,,,,
21023,902723,MANSELL RD@WESTSIDE PKY,0 MANSELL & WESTSIDE,34.040566,-84.319181,,,,
21025,902724,MANSELL RD@WARSAW RD,0 MANSELL RD & WARSAW RD,34.042695,-84.329196,,,,
21029,902628,MANSELL RD@EAGLES CREST VILLAGE LN,0 MANSELL & EAGLES CREST VILLAGE,34.043068,-84.338841,,,,
21038,902787,HOLCOMB BRIDGE RD@ALPHARETTA ST,0 HOLCOMB BRIDGE & ALPHARETTA,34.035824,-84.343109,,,,
21042,902788,HOLCOMB BRIDGE RD@ALPHARETTA ST,0 HOLCOMB BRIDGE & ALPHARETTA,34.034755,-84.34199,,,,
21044,902789,HOLCOMB BRIDGE RD@GRIMES BRIDGE RD,0 HOLCOMB BRIDGE & GRIMES BRIDGE,34.032795,-84.341476,,,,
21046,902832,HOLCOMB BRIDGE RD@OLD ROSWELL RD,0 HOLCOMB BRIDGE & OLD ROSWELL,34.032943,-84.34081,,,,
21048,902856,HOLCOMB BRIDGE RD@OLD ROSWELL RD,0 HOLCOMB BRIDGE & OLD ROSWELL,34.031756,-84.339365,,,,
21050,902857,HOLCOMB BRIDGE RD@MARKET PL,0 HOLCOMB BRIDGE & MARKET,34.031414,-84.339737,,,,
21052,902858,HOLCOMB BRIDGE RD@MARKET PL,0 HOLCOMB BRIDGE & MARKET,34.030893,-84.338273,,,,
21054,902790,HOLCOMB BRIDGE RD@MARKET PL,0 HOLCOMB BRIDGE & MARKET,34.03054,-84.338638,,,,
21056,902791,HOLCOMB BRIDGE RD@WARSAW RD,0 HOLCOMB BRIDGE & WARSAW,34.028156,-84.335617,,,,
21058,902792,HOLCOMB BRIDGE RD @ WARSAW RD,0 HOLCOMB BRIDGE RD & WARSAW RD,34.028164,-84.33501,,,,
21060,902829,HOLCOMB BRIDGE RD@RIVERWOOD LN,0 HOLCOMB BRIDGE RD & RIVERWOOD LN,34.025954,-84.332511,,,,
21062,902830,HOLCOMB BRIDGE RD@OLD HOLCOMB BRID,0 HOLCOMB BRIDGE RD & OLD HOLCOMB BRIDGE RD,34.025936,-84.332173,,,,
21064,902831,HOLCOMB BRIDGE RD@DOGWOOD RD,0 HOLCOMB BRIDGE & DOGWOOD,34.024068,-84.32961,,,,
21066,902962,HOLCOMB BRIDGE RD@DOGWOOD RD,0 HOLCOMB BRIDGE & DOGWOOD,34.023655,-84.330254,,,,
21070,902963,ALPHARETTA ST@MANSELL CIR,0 ALPHARETTA & MANSELL,34.034363,-84.346611,,,,
21074,902965,ALPHARETTA ST@COMMERCE PKY,0 ALPHARETTA & COMMERCE,34.03909,-84.34285,,,,
21076,902923,ALPHARETTA ST@MANSELL RD,0 ALPHARETTA & MANSELL,34.041012,-84.341972,,,,
21079,902924,ALPHARETTA ST@MANSELL RD,0 ALPHARETTA & MANSELL,34.042066,-84.341461,,,,
21080,902925,ALPHARETTA HWY@HOUZE WAY,0 ALPHARETTA & HOUZE,34.045967,-84.340134,,,,
21082,902926,ALPHARETTA HWY@MANSELL RD,0 ALPHARETTA & MANSELL,34.043225,-84.341303,,,,
21084,902966,ALPHARETTA ST@1240,,34.032547,-84.351204,,,,
21096,902967,ALPHARETTA ST@HOUZE RD,0 ALPHARETTA ST & HOUZE RD,34.038247,-84.343293,,,,
21097,902968,NORTH POINT PKY@NORTH POINT CT,0 NORTH POINT PKY & NORTH POINT CT,34.048219,-84.288122,,,,
21098,902927,HOLCOMB BRIDGE RD@OLD DOGWOOD RD,0 HOLCOMB BRIDGE & OLD DOGWOOD,34.02259,-84.326827,,,,
21102,902928,HAYNES BRIDGE RD@NORTH POINT PKY,0 HAYNES BRIDGE & NORTH POINT,34.049061,-84.28672,,,,
21104,903114,HAYNES BRIDGE RD@NORTH POINT DR,0 HAYNES BRIDGE & NORTH POINT,34.050373,-84.286285,,,,
21112,903079,HOLCOMB BRIDGE RD@GRIMES BRIDGE RD,0 HOLCOMB BRIDGE & GRIMES BRIDGE,34.034047,-84.342203,,,,
21120,903080,ALPHARETTA HWY@HOUZE WAY,0 ALPHARETTA & HOUZE,34.045088,-84.340153,,,,
21122,903116,MANSELL RD@KINGSWOOD PL,0 MANSELL RD & KINGSWOOD PL,34.039993,-84.321853,,,,
21124,903117,MANSELL RD@980,,34.042966,-84.332759,,,,
21126,903118,MANSELL RD@WARSAW RD,0 MANSELL & WARSAW,34.042597,-84.332851,,,,
21128,903119,MANSELL RD@DAVIS DR,0 MANSELL & DAVIS,34.040594,-84.31571,,,,
21950,903120,MANSELL P&R - ON RAMP,2158 MANSELL RD,34.038139,-84.313456,,,,
21951,903177,MANSELL P&R - IN LOT,2158 MANSELL RD,34.038643,-84.313173,,,,
21954,903078,ALPHARETTA ST@10730,10730 ALPHARETTA HWY,34.041281,-84.342017,,,,
21960,903113,MANSELL RD@950,,34.043098,-84.336125,,,,
21962,902633,MANSELL RD@OLD ROSWELL RD,0 MANSELL & OLD ROSWELL,34.042363,-84.326224,,,,
21964,902634,MANSELL RD@KINGSWOOD PL,0 MANSELL & KINGSWOOD,34.040383,-84.321726,,,,
21966,902635,MANSELL RD@COLONIAL CTR PKWY,0 MANSELL RD & COLONIAL CENTER PKY,34.042606,-84.327112,,,,
22016,902636,NORTH POINT PKY@MANSELL RD,0 NORTH POINT & MANSELL,34.038311,-84.305962,,,,
22018,902682,NORTH POINT PKY@7731,,34.039226,-84.306024,,,,
22020,902731,NORTH POINT PKY@7601,,34.040913,-84.304853,,,,
22022,902732,NORTH POINT PKY@7301,,34.042389,-84.303216,,,,
22024,902733,NORTH POINT PKY@7391,7391 NORTH POINT PKY & CENTER BRIDGE RD,34.043462,-84.301066,,,,
22028,902735,NORTH POINT PKY@6440,6440 NORTH POINT PKY & CENTER BRIDGE RD,34.045,-84.294158,,,,
22030,902841,NORTH POINT PKY@6499,,34.046082,-84.292433,,,,
22032,902842,NORTH POINT PKY@6400,,34.045876,-84.292137,,,,
22042,902801,NORTH POINT PKY@CENTER BRIDGE RD,0 NORTH POINT PKY & CENTER BRIDGE RD,34.044106,-84.299527,,,,
22044,902802,NORTH POINT PKY@CENTER BRIDGE RD,0 NORTH POINT PKY & CENTER BRIDGE RD,34.043757,-84.299767,,,,
22058,902871,NORTH POINT PK@6800,6800 NORTH POINT PKY & CENTER BRIDGE RD,34.044008,-84.298468,,,,
22060,902872,NORTH POINT PKY@MANSELL RD,0 NORTH POINT & MANSELL,34.0383,-84.30651,,,,
22066,902803,NORTH POINT PKY@7500,7500 NORTH POINT PKY & NORTH POINT CT,34.040627,-84.304689,,,,
22068,902804,NORTH POINT PKY@7300,7300 NORTH POINT PKY & CENTER BRIDGE RD,34.043212,-84.300946,,,,
26002,902929,ROSWELL RD@HOPE RD,0 ROSWELL & HOPE,33.989597,-84.351974,,,,
26004,902930,ROSWELL RD@HUNTCLIFF,0 ROSWELL & HUNTCLIFF,33.992786,-84.351707,,,,
26006,902931,ROSWELL RD@8740,,33.994862,-84.351372,,,,
26007,902932,ROSWELL RD@RIVER PKY,0 ROSWELL & RIVER,34.001651,-84.350721,,,,
26010,902983,ROSWELL RD@ROBERTS DR,0 ROSWELL & ROBERTS,34.003143,-84.350876,,,,
26011,902984,ROSWELL RD@DUNWOODY PL,0 ROSWELL & DUNWOODY,33.999743,-84.350622,,,,
26018,902985,ROSWELL RD@8775,,33.998459,-84.350533,,,,
26020,902933,ROSWELL RD@9040,,34.000168,-84.350372,,,,
26022,903050,ROSWELL RD@RIVER PKWY,0 ROSWELL & RIVER,34.001392,-84.350327,,,,
26025,903051,ROSWELL RD@ROBERTS DR,0 ROSWELL & ROBERTS,34.003013,-84.350267,,,,
26026,903129,ATLANTA ST@RIVERSIDE RD,0 ATLANTA & RIVERSIDE,34.005913,-84.350563,,,,
26029,903130,ATLANTA ST@CHATTAHOOCHEE CIR,0 ATLANTA & CHATTAHOOCHEE,34.00749,-84.35275,,,,
26030,903131,ATLANTA ST@WARM SPRINGS CIR,0 ATLANTA & WARM SPRINGS,34.008839,-84.357605,,,,
26032,903132,ATLANTA ST@JONES DR,0 S ATLANTA ST & JONES DR,34.008653,-84.359842,,,,
26034,903052,ATLANTA ST@KING ST,0 ATLANTA & KING,34.012344,-84.362854,,,,
26036,903053,ATLANTA ST@MILL ST,0 ATLANTA & MILL,34.014088,-84.362854,,,,
26040,903081,ATLANTA ST@MAPLE ST,0 ATLANTA & MAPLE,34.016396,-84.362694,,,,
26044,903082,ATLANTA ST@WARM SPRINGS CIR,0 S ATLANTA ST & WARM SPRINGS CIR,34.008698,-84.357443,,,,
26045,903133,ATLANTA ST@CHATTAHOOCHEE CIR,0 ATLANTA & CHATTAHOOCHEE,34.007196,-84.352782,,,,
26046,903134,ATLANTA ST@JONES DR,0 ATLANTA & JONES,34.008507,-84.360161,,,,
26047,903135,ATLANTA ST@AZALEA DR,0 ATLANTA & AZALEA,34.006108,-84.350856,,,,
26048,903136,ATLANTA ST@408,,34.009689,-84.361443,,,,
26050,903141,ATLANTA ST@CHATTAHOOCHEE ST,0 ATLANTA ST & CHATTAHOOCHEE ST,34.01181,-84.3628,,,,
26052,903142,DUNWOODY PL @ 8601,,33.990562,-84.343491,,,,
26056,902651,DUNWOODY PL @ 8725,,33.995672,-84.349422,,,,
26072,902645,DUNWOODY PL @ N RIVER DR,0 DUNWOODY PL & N RIVER DR,33.993256,-84.347273,,,,
26076,902647,DUNWOODY PL @ 8711,,33.994738,-84.349035,,,,
26080,902692,ROSWELL RD@HUNTINGTON PLACE DR,0 ROSWELL RD & HUNTINGTON PL DR,33.992441,-84.351526,,,,
26084,902694,ATLANTA ST@SLOAN ST,0 ATLANTA & SLOAN,34.0153,-84.362716,,,,
26086,902695,DUNWOODY PL @ ROSWELL RD,0 DUNWOODY & ROSWELL,33.996456,-84.350228,,,,
27002,902744,DUNWOODY PL @ ROBERTS DR,0 DUNWOODY & ROBERTS,33.989414,-84.341888,,,,
27004,902745,DUNWOODY PL @ ROBERTS DR,0 DUNWOODY PL & ROBERTS DR,33.99008,-84.34314,,,,
27005,906297,DUNWOODY PL @ HIGHTOWER TRL,0 DUNWOODY & HIGHTOWER,33.986955,-84.341801,,,,
27008,906298,DUNWOODY PL @ 8700,,33.991574,-84.345026,,,,
27010,906282,DUNWOODY PL @ 8800,,33.991342,-84.345208,,,,
27012,906283,DUNWOODY PL @ CEDAR RUN,0 DUNWOODY & CEDAR,33.992817,-84.346627,,,,
27014,906284,DUNWOODY PL @ HOPE RD,0 DUNWOODY PL & HOPE RD,33.993059,-84.347208,,,,
31002,906299,JETT FERRY RD@DUNWOODY CLUB DR,0 JETT FERRY & DUNWOODY CLUB,33.959702,-84.302299,,,,
32002,906300,ROSWELL RD NE@TROWBRIDGE RD NE,0 ROSWELL & TROWBRIDGE,33.959641,-84.365372,,,,
32004,906301,ROSWELL RD@7546,,33.963367,-84.364922,,,,
32006,906302,ROSWELL RD@7741,,33.965836,-84.363037,,,,
32012,906286,ROSWELL RD@GROGANS FERRY RD,0 ROSWELL & GROGANS FERRY,33.973206,-84.357254,,,,
32014,906287,ROSWELL RD@BRANTLEY RD,0 ROSWELL & BRANTLEY,33.974342,-84.355011,,,,
32016,906288,ROSWELL RD@PITTS RD,0 ROSWELL & PITTS,33.97517,-84.35334,,,,
32017,906357,ROSWELL RD@NORTHRIDGE CROSSING DR,0 ROSWELL & NORTHRIDGE CROSSING,33.977017,-84.351561,,,,
32020,906358,ROSWELL RD@8215,,33.978828,-84.350815,,,,
32022,906359,ROSWELL RD@NORTHRIDGE RD,0 ROSWELL & NORTHRIDGE,33.981735,-84.350197,,,,
32025,906321,ROSWELL RD@NORTHRIDGE PKY,0 ROSWELL & NORTHRIDGE,33.985492,-84.350498,,,,
32026,906352,ROSWELL RD@HIGHTOWER TRL,0 ROSWELL RD & HIGHTOWER TRL,33.988584,-84.351328,,,,
32028,906353,ROSWELL RD@TROWBRIDGE RD,0 ROSWELL & TROWBRIDGE,33.958854,-84.365489,,,,
32032,906354,ROSWELL RD@7730,,33.965988,-84.363388,,,,
32034,906355,ROSWELL RD@MORGAN FALLS RD,0 ROSWELL & MORGAN FALLS,33.968826,-84.361366,,,,
32036,906322,ROSWELL RD@7840,,33.970417,-84.359618,,,,
32038,906323,ROSWELL RD@7878,,33.971504,-84.358749,,,,
32040,906324,ROSWELL RD@GROGANS FERRY RD,0 ROSWELL & GROGANS FERRY,33.973217,-84.357605,,,,
32042,906325,ROSWELL RD@BRANTLEY RD,0 ROSWELL & BRANTLEY,33.974358,-84.355637,,,,
32044,906356,ROSWELL RD@ISON RD,0 ROSWELL RD & ISON RD,33.97491,-84.35406,,,,
32045,903061,ROSWELL RD@NORTHRIDGE CROSSING DR,0 ROSWELL & NORTHRIDGE CROSSING,33.976992,-84.351929,,,,
32046,903065,ROSWELL RD@8215,,33.97891,-84.351072,,,,
32050,903067,ROSWELL RD@NORTHRIDGE PKY,0 ROSWELL & NORTHRIDGE,33.984066,-84.350677,,,,
32051,903068,ROSWELL RD@8450,,33.985727,-84.350793,,,,
32053,903145,ROSWELL RD@HIGHTOWER TRL,0 ROSWELL & HIGHTOWER,33.987788,-84.351409,,,,
32070,903149,ROSWELL RD@MORGAN FALLS RD,0 ROSWELL & MORGAN FALLS,33.96814,-84.36117,,,,
32072,903150,ROSWELL RD@7840,,33.970314,-84.359644,,,,
32080,902656,ROSWELL RD@7525,,33.960849,-84.365506,,,,
32082,902713,ROSWELL RD@NORTHRIDGE RD,0 ROSWELL & NORTHRIDGE,33.981056,-84.350434,,,,
33016,902658,DUNWOODY PL @ NORTHRIDGE PKY,0 DUNWOODY PL & NORTHRIDGE PKY,33.984622,-84.341252,,,,
33017,902659,DUNWOODY PL @ HIGHTOWER TRL,0 DUNWOODY PL & HIGHTOWER TRL,33.986179,-84.341481,,,,
33018,902660,DUNWOODY PL @ NORTHRIDGE RD,0 DUNWOODY & NORTHRIDGE,33.982841,-84.342964,,,,
35010,902782,ROSWELL RD@7865,,33.97147,-84.358452,,,,
35016,902783,ROSWELL RD NE@6701,,33.939087,-84.375977,,,,
35018,902849,ROSWELL RD NE@6851,,33.942314,-84.372871,,,,
35020,902850,ROSWELL RD@7640,,33.962807,-84.365623,,,,
35022,902851,ROSWELL RD NE@SPALDING DR NE,0 ROSWELL & SPALDING,33.945827,-84.370956,,,,
35024,902784,ROSWELL RD NE@7070,,33.948154,-84.370522,,,,
35027,902785,ROSWELL RD NE@7140,,33.949751,-84.369406,,,,
35031,902786,ROSWELL RD NE@7155,,33.950971,-84.368442,,,,
35033,902812,ROSWELL RD NE@7155,,33.950723,-84.36817,,,,
35034,902852,ROSWELL RD NE@DALRYMPLE RD NE,0 ROSWELL & DALRYMPLE,33.955509,-84.364807,,,,
35038,902853,ROSWELL RD NE@DALRYMPLE RD NE,0 ROSWELL & DALRYMPLE,33.955048,-84.364601,,,,
35040,902854,ROSWELL RD NE@7447,,33.956905,-84.364632,,,,
35041,902855,ROSWELL RD NE@6700,,33.939301,-84.376477,,,,
35046,902814,ROSWELL RD NE@6940,,33.944717,-84.371986,,,,
35047,902815,ROSWELL RD NE@6900,,33.943185,-84.372831,,,,
35048,902958,ROSWELL RD NE@SPALDING DR NE,0 ROSWELL & SPALDING,33.946217,-84.371246,,,,
35060,902995,ROSWELL RD NE@6500,,33.93397,-84.379913,,,,
35064,902960,ROSWELL RD NE@6560,,33.934684,-84.379965,,,,
35066,902961,ROSWELL RD NE@ABERNATHY RD,0 ROSWELL & ABERNATHY,33.935806,-84.379508,,,,
35072,902996,ROSWELL RD NE@6575,,33.935393,-84.379238,,,,
35129,903107,ROSWELL RD NE@7256,,33.953271,-84.366776,,,,
35132,903109,ROSWELL RD NE@7256,,33.95277,-84.366646,,,,
35134,903194,ROSWELL RD NE@7070,,33.948387,-84.371056,,,,
35135,903195,ROSWELL RD NE@7100,,33.949764,-84.369957,,,,
35144,903111,ROSWELL RD@SUNNY BROOK LN,0 ROSWELL & SUNNY BROOK,33.937737,-84.37783,,,,
35146,903112,ROSWELL RD@ABERNATHY RD,0 ROSWELL & ABERNATHY,33.936988,-84.378198,,,,
35900,902725,NORTH SPRINGS STATION,7020 PEACHTREE DUNWOODY  RD  NE,33.945416,-84.357235,,,,
36002,902726,ASHFORD DUNWOODY RD@ASHFORD PKY,0 ASHFORD DUNWOODY RD & ASHFORD PKY,33.934098,-84.33758,,,,
36003,902727,ASHFORD DUNWOODY RD@ASHFORD CENTER,0 ASHFORD DUNWOODY RD & ASHFORD CENTER PKY,33.938904,-84.337897,,,,
36004,902728,ASHFORD DUNWOODY RD@VALLEY VIEW RD,0 ASHFORD DUNWOODY & VALLEY VIEW,33.936,-84.33766,,,,
36005,902668,ASHFORD DUNWOODY RD@ASHFORD CENTER,0 ASHFORD DUNWOODY & ASHFORD CENTER,33.93902,-84.33831,,,,
36006,902669,ASHFORD DUNWOODY RD@ASHFORD CTR N,0 ASHFORD DUNWOODY RD & ASHFORD CENTER PKY,33.94132,-84.338159,,,,
36038,902864,CHAMBLEE DUNWOODY RD@MT VERNON RD,0 CHAMBLEE DUNWOODY & MT VERNON,33.946285,-84.335045,,,,
36040,902865,CHAMBLEE DUNWOODY RD@NANDINA LN,0 CHAMBLEE DUNWOODY & NANDINA,33.94733,-84.33583,,,,
36050,902866,CHAMBLEE DUNWOODY RD@DUNWOODY VILL,0 CHAMBLEE DUNWOODY RD & DUNWOODY VILLAGE PKY,33.949857,-84.33646,,,,
36088,903004,ASHFORD DUNWOODY RD@ASHFORD CTR N,0 ASHFORD DUNWOODY & ASHFORD,33.94162,-84.33872,,,,
36090,903005,ASHFORD DUNWOODY RD@ASHFORD GABLES,0 ASHFORD DUNWOODY & VALLEY VIEW,33.93651,-84.33836,,,,
36092,903006,ASHFORD DUNWOODY RD@ASHWOOD PKWY,0 ASHFORD DUNWOODY & ASHWOOD,33.933868,-84.338264,,,,
36096,902973,ASHFORD DUNWOODY RD@MEADOW LANE RD,0 ASHFORD DUNWOODY & MEADOW LANE,33.93195,-84.3378,,,,
36098,902974,ASHFORD DUNWOODY RD@MT VERNON RD,0 ASHWOOD DUNWOODY & MT VERNON,33.942817,-84.337788,,,,
36112,902970,DUNWOODY VILLAGE PKY@MT VERNON RD,0 DUNWOODY VILLAGE & MT VERNON,33.947607,-84.331618,,,,
36114,902971,DUNWOODY VILLAGE@CHAMBLEE DUNWOO,0 DUNWOODY VILLAGE & CHAMBLEE DUNWOODY,33.949367,-84.33265,,,,
36116,903178,DUNWOODY VILLAGE@CHAMBLEE DUNWOO,0 DUNWOODY VILLAGE & CHAMBLEE DUNWOODY,33.950359,-84.33553,,,,
37002,903121,PEACHTREE RD@KINGS POINT DR,0 PEACHTREE & KINGS POINT,33.930561,-84.294632,,,,
37003,903122,MT VERNON RD@TILLY MILL RD,0 MT VERNON & TILLY MILL,33.9559,-84.30533,,,,
37004,903123,PEACHTREE RD@KINGS POINT DR,0 N PEACHTREE RD & KINGS POINT DR,33.930972,-84.294791,,,,
37005,903124,MT VERNON RD@MEADOW LAKE DR,0 MT VERNON & MEADOW LAKE,33.95243,-84.31196,,,,
37006,903204,PEACHTREE RD@BROOK RUN AVE,0 PEACHTREE & BROOK RUN,33.934723,-84.294998,,,,
37007,903205,MT VERNON RD@MEADOW LAKE DR,0 MT VERNON & MEADOW LAKE,33.95264,-84.31175,,,,
37008,903206,TILLY MILL RD@PEACHTREE RD,0 TILLY MILL & PEACHTREE,33.938637,-84.297134,,,,
37009,903207,MT VERNON RD@MANHASSET DR,0 MT VERNON RD & MANHASSET DR,33.950448,-84.319437,,,,
37010,903125,TILLY MILL RD@CHERRING DR,0 TILLY MILL & CHERRING,33.938847,-84.296875,,,,
37011,903126,MT VERNON RD@VERMACK RD,0 MT VERNON & VERMACK,33.95026,-84.31968,,,,
37012,903127,TILLY MILL RD@DARTFORD DR,0 TILLY MILL & DARTFORD,33.944782,-84.301552,,,,
37013,903128,MT VERNON RD@VERNON RIDGE DR,0 MT VERNON & VERNON RIDGE,33.94779,-84.32686,,,,
37014,903208,TILLY MILL RD@TILLINGHAM CT,0 TILLY MILL & TILLINGHAM,33.942707,-84.299725,,,,
37016,902683,TILLY MILL RD@STEPHENS WALK,0 TILLY MILL RD & STEPHENS WALK,33.946366,-84.302981,,,,
37017,902684,MT VERNON RD@DUNWOODY VILLAGE PKWY,0 MT VERNON RD & DUNWOODY VILLAGE PKY,33.946958,-84.33149,,,,
37018,902685,TILLY MILL RD@DARTFORD DR,0 TILLY MILL & DARTFORD,33.944939,-84.302193,,,,
37019,902686,MT VERNON RD@STRATHAM DR,0 MT VERNON & STRATHAM,33.95162,-84.3147,,,,
37020,902736,TILLY MILL RD@DARTFORD DR,0 TILLY MILL & DARTFORD,33.946084,-84.303016,,,,
37021,902737,MT VERNON RD@STRATHAM DR,0 MT VERNON RD & STRATHAM DR,33.951764,-84.31463,,,,
37022,902738,TILLY MILL RD@SANDELL DR,0 TILLY MILL & SANDELL,33.952557,-84.305428,,,,
37023,902739,TILLY MILL RD@LAKESPRINGS WAY,0 TILLY MILL & LAKESPRINGS,33.948708,-84.304795,,,,
37024,902687,TILLY MILL RD@SANDELL DR,0 TILLY MILL & SANDELL,33.952854,-84.305862,,,,
37026,902688,MT VERNON RD@CEDAR CHASE,0 MT VERNON & CEDAR CHASE,33.956116,-84.303917,,,,
37028,902689,JETT FERRY RD@MT VERNON RD,0 JETT FERRY & MT VERNON,33.95782,-84.30238,,,,
37030,902690,MT VERNON RD@JETT FERRY RD,0 MT VERNON & JETT FERRY,33.957893,-84.301856,,,,
37032,902740,TILLY MILL RD@HOLLAND CT,0 TILLY MILL & HOLLAND,33.949333,-84.30481,,,,
37034,902741,PEELER RD@GLENBONNIE DR,0 PEELER & GLENBONNIE,33.936573,-84.286873,,,,
37036,902742,PEELER RD@EDISON RD,0 PEELER & EDISON,33.93687,-84.28591,,,,
37038,902743,PEELER RD@HAPPY HOLLOW RD,0 PEELER & HAPPY HOLLOW,33.93882,-84.282799,,,,
37040,902873,PEELER RD@WINDWOOD DR,0 PEELER & WINDWOOD,33.939384,-84.280205,,,,
37042,902874,PEELER RD@LAKESIDE DR,0 PEELER & LAKESIDE,33.939846,-84.278465,,,,
37044,902875,PEELER RD@FOUR OAKS CT,0 PEELER & FOUR OAKS,33.940006,-84.275436,,,,
37046,902876,PEELER RD@TWIN LAKES TRL,0 PEELER & TWIN LAKES,33.94036,-84.27384,,,,
37048,902805,WINTERS CHAPEL RD@PEELER RD,0 WINTERS CHAPEL & PEELER,33.940674,-84.270889,,,,
37050,902806,WINTERS CHAPEL RD@4920,,33.938897,-84.269511,,,,
37052,902807,WINTERS CHAPEL RD@WOMACK DR,0 WINTERS CHAPEL RD NW & WOMACK DR NW,33.935409,-84.26684,,,,
37054,902833,WINTERS CHAPEL RD@4739,,33.933708,-84.266701,,,,
37060,902877,PEELER RD@VILLAGE MILL RD,0 PEELER & VILLAGE MILL,33.931843,-84.309731,,,,
37062,902878,PEELER RD@ADAMS RD,0 PEELER & ADAMS,33.934982,-84.306114,,,,
37064,902879,PEELER RD@EQUESTRIAN WAY,0 PEELER & EQUESTRIAN,33.934429,-84.306313,,,,
37068,902880,PEELER RD@CHERRING DR,0 PEELER & CHERRING,33.936012,-84.298553,,,,
37070,902834,PEACHTREE RD@BROOK RUN AVE,0 PEACHTREE & BROOK RUN,33.934648,-84.294584,,,,
37072,902835,TILLY MILL RD@PEACHTREE RD,0 TILLY MILL & PEACHTREE,33.937144,-84.294379,,,,
37074,902836,TILLY MILL RD@TILLINGHAM CT,0 TILLY MILL & TILLINGHAM,33.942675,-84.29937,,,,
37076,902837,TILLY MILL RD@MT VERNON RD,0 TILLY MILL & MT VERNON,33.954907,-84.3054,,,,
37078,902934,DUNWOODY CLUB DR@SAFFRON DR,0 DUNWOODY CLUB & SAFFRON,33.959162,-84.300133,,,,
37080,902935,TILLY MILL RD@HOLLAND CT,0 TILLY MILL & HOLLAND,33.949399,-84.305084,,,,
37082,902936,TILLY MILL RD@PEACHTREE RD,0 TILLY MILL & PEACHTREE,33.936698,-84.294397,,,,
37084,903016,PEACHTREE RD@BARCLAY DR,0 PEACHTREE & BARCLAY,33.933403,-84.295131,,,,
37086,903017,PEACHTREE RD@PEACHFORD RD,0 PEACHTREE & PEACHFORD,33.929211,-84.29563,,,,
37088,903018,PEACHTREE RD@BROOKHURST DR,0 PEACHTREE & BROOKHURST,33.926697,-84.295604,,,,
37092,902937,PEELER RD@CHERRING DR,0 PEELER & CHERRING,33.935626,-84.298555,,,,
37100,903020,PEELER RD@OLDE VILLAGE LN,0 PEELER & OLDE VILLAGE,33.934476,-84.308074,,,,
37102,903021,PEELER RD@INDEPENDENCE SQ,0 PEELER & INDEPENDENCE,33.930232,-84.311823,,,,
37106,903023,WINTERS CHAPEL RD@SPRING DR,0 WINTERS CHAPEL & SPRING,33.932659,-84.265803,,,,
37108,903024,PEELER RD@CHERRING LN,0 PEELER & CHERRING,33.936014,-84.295613,,,,
37110,903144,PEELER RD@CHERRING LN,0 PEELER & CHERRING,33.93562,-84.295841,,,,
38002,903137,RIVEREDGE PKY@1600,,33.910269,-84.437713,,,,
38008,903140,NORTHSIDE DR@INTERSTATE NORTH PKY,0 NORTHSIDE & INTERSTATE NORTH,33.908414,-84.43304,,,,
38012,903182,INTERSTATE NORTH PKY@5665,5665 INTERSTATE NORTH & NORTHSIDE,33.909656,-84.431685,,,,
39002,903221,HAMMOND DR@KAYRON DR,0 HAMMOND & KAYRON,33.91894,-84.37139,,,,
39004,903222,HAMMOND DR@KAYRON DR,0 HAMMOND & KAYRON,33.91903,-84.37154,,,,
39018,903184,JOHNSON FERRY RD NE@GLENRIDGE DR NE,0 JOHNSON FERRY & GLENRIDGE,33.922104,-84.367935,,,,
39024,902746,JOHNSON FERRY RD NE@GLENRIDGE DR NE,0 JOHNSON FERRY RD NE & GLENRIDGE DR NE,33.922431,-84.367997,,,,
39040,902747,ROSWELL RD NE@GLENRIDGE DR NE,0 ROSWELL & GLENRIDGE,33.90208,-84.37925,,,,
39042,902696,ROSWELL RD NE@GLENRIDGE DR NE,0 ROSWELL & GLENRIDGE,33.90289,-84.3789,,,,
39044,902697,ROSWELL RD NE@GLENRIDGE DR,0 ROSWELL & GLENRIDGE,33.905842,-84.378998,,,,
39046,902698,ROSWELL RD NE@5531,,33.90724,-84.3793,,,,
39048,902699,ROSWELL RD NE@LAKE PLACID DR NE,0 ROSWELL & LAKE PLACID,33.909088,-84.379189,,,,
39050,902748,ROSWELL RD NE@NORTHWOOD DR NE,0 ROSWELL RD NE & NORTHWOOD DR NE,33.910944,-84.379025,,,,
39052,902749,ROSWELL RD NE@ALLEN RD,0 ROSWELL & ALLEN,33.91372,-84.37955,,,,
39056,902750,ROSWELL RD NE@5925,,33.917343,-84.379182,,,,
39058,902751,ROSWELL RD NE@HAMMOND DR NE,0 ROSWELL RD NE & HAMMOND DR NE,33.919186,-84.379042,,,,
39060,902700,ROSWELL RD NE@HILDERBRAND DR,0 ROSWELL RD NE & HILDERBRAND DR NE,33.922838,-84.379273,,,,
39062,902701,ROSWELL RD NE@MT VERNON HWY NE,0 ROSWELL & MT VERNON,33.9242,-84.37937,,,,
39064,902702,ROSWELL RD NE@SANDY SPRINGS CIR NE,0 ROSWELL & SANDY SPRINGS,33.927011,-84.379415,,,,
39065,902703,HAMMOND DR NE@ROSWELL RD,0 HAMMOND & ROSWELL,33.919215,-84.378795,,,,
39067,906303,ROSWELL RD@JOHNSON FERRY RD,0 ROSWELL & JOHNSON FERRY,33.925475,-84.379441,,,,
39068,906304,ROSWELL RD NE@CROMWELL RD NE,0 ROSWELL & CROMWELL,33.929142,-84.379456,,,,
39070,906305,ROSWELL RD NE@GLENRIDGE DR NE,0 ROSWELL & GLENRIDGE,33.902489,-84.378456,,,,
39072,906306,ROSWELL RD NE@5555,,33.907636,-84.378673,,,,
39074,906290,ROSWELL RD NE@LAKE PLACID DR NE,0 ROSWELL RD NE & US-19,33.908707,-84.378631,,,,
39076,906291,ROSWELL RD NE@LAKE PLACID DR,0 ROSWELL & LAKE PLACID,33.91021,-84.378745,,,,
39078,906292,ROSWELL RD NE@ALLEN RD NE,0 ROSWELL & ALLEN,33.914017,-84.379242,,,,
39080,906293,ROSWELL RD NE@CLIFTWOOD DR NE,0 ROSWELL & CLIFTWOOD,33.915392,-84.379172,,,,
39082,906307,ROSWELL RD NE@5925,,33.917023,-84.37902,,,,
39084,906308,ROSWELL RD NE@HAMMOND DR NE,0 ROSWELL & HAMMOND,33.918831,-84.378862,,,,
39086,906309,ROSWELL RD NE@SANDY SPRINGS PL NE,0 ROSWELL RD NE & SANDY SPRINGS PL NE,33.92001,-84.378944,,,,
39090,906294,ROSWELL RD NE@HILDERBRAND DR NE,0 ROSWELL & HILDERBRAND,33.922714,-84.379102,,,,
39092,906326,ROSWELL RD NE@MT VERNON HWY NE,0 ROSWELL & MT VERNON,33.923721,-84.379011,,,,
39095,906330,ROSWELL RD NE@JOHNSON FERRY RD NE,0 ROSWELL & JOHNSON FERRY,33.925374,-84.379009,,,,
39096,906331,ROSWELL RD NE@SANDY SPRINGS CIR NE,0 ROSWELL & SANDY SPRINGS,33.92717,-84.37906,,,,
39098,906332,ROSWELL RD NE@VERNON WOODS DR NE,0 ROSWELL RD NE & VERNON WOODS DR NE,33.929308,-84.37919,,,,
39100,906360,ROSWELL RD NE@6509,,33.934417,-84.379717,,,,
39102,906361,ROSWELL RD NE@CLIFTWOOD DR NE,0 ROSWELL & CLIFTWOOD,33.915711,-84.379675,,,,
39117,906362,MT VERNON HWY@BOYLSTON DR,0 MT VERNON & BOYLSTON,33.92427,-84.377464,,,,
39124,906363,JOHNSON FERRY RD@KAYRON DR,0 JOHNSON FERRY & KAYRON,33.922756,-84.370697,,,,
39126,906333,JOHNSON FERRY RD@KAYRON DR,0 JOHNSON FERRY RD NE & KAYRON DR NE,33.923119,-84.370666,,,,
39144,906334,ROSWELL RD NE@SANDY SPRINGS PL,0 ROSWELL RD NE & SANDY SPRINGS PL NE,33.920099,-84.37913,,,,
39150,906335,ROSWELL RD@5491,,33.905167,-84.378537,,,,
39188,903157,JOHNSON FERRY RD@MT VERNON HWY,0 JOHNSON FERRY RD NE & MT VERNON HWY NE,33.924333,-84.376452,,,,
39190,903158,JOHNSON FERRY RD@ROSWELL RD,0 JOHNSON FERRY & ROSWELL,33.924741,-84.378245,,,,
39192,902662,JOHNSON FERRY RD@HARLESTON RD,0 JOHNSON FERRY & HARLESTON,33.92371,-84.37488,,,,
39194,902663,JOHNSON FERRY RD@HARLESTON RD,0 JOHNSON FERRY & HARLESTON,33.923572,-84.375321,,,,
39196,902664,HAMMOND DR@BOYLSTON DR,0 HAMMOND & BOYLSTON,33.919219,-84.376439,,,,
39198,902753,HAMMOND DR@BOYLSTON DR,0 HAMMOND & BOYLSTON,33.918895,-84.376802,,,,
40017,902665,HAMMOND DR NE @ GLENRIDGE DR NE,0 HAMMOND & GLENRIDGE,33.91878,-84.363446,,,,
40038,902704,HAMMOND DR @ PEACHTREE DUNWOODY RD,0 HAMMOND & PEACHTREE DUNWOODY,33.918961,-84.351952,,,,
40050,902816,HAMMOND DR NE @ 1005,,33.918556,-84.354683,,,,
40086,902888,HAMMOND DR @ PEACHTREE DUNWOODY RD,0 HAMMOND & PEACHTREE DUNWOODY,33.91843,-84.349922,,,,
40118,902889,ASHFORD DUNWOODY RD @ RAVINIA DR,0 ASHFORD DUNWOODY & RAVINIA,33.922586,-84.338778,,,,
40130,902890,PEACHTREE DUNWOODY RD@JOHNSON FERR,0 PEACHTREE DUNWOODY & JOHNSON FERRY,33.908516,-84.352356,,,,
40152,902884,ASHFORD DUNWOODY RD NE@RAVINIA DR,0 ASHFORD DUNWOODY & RAVINIA,33.920977,-84.338791,,,,
40156,902885,PERIMETER CTR E @ ASHFORD DUNWOODY,0 PERIMETER CTR E & ASHFORD CENTER PKY,33.923825,-84.33747,,,,
40158,902886,PERIMETER CTR E @ ASHFORD DUNWOODY,0 PERIMETER & ASHFORD DUNWOODY,33.926156,-84.336697,,,,
40160,902891,PERIMETER CTR E@ASHFORD DUNWOODY RD,0 PERIMETER & ASHFORD DUNWOODY,33.926453,-84.336617,,,,
40208,903034,PEACHTREE DUNWOODY @ JOHNSON FERRY,0 PEACHTREE DUNWOODY & JOHNSON FERRY,33.90717,-84.35238,,,,
40215,903035,HAMMOND DR @ PEACHTREE DUNWOODY RD,0 HAMMOND & PEACHTREE DUNWOODY,33.919022,-84.350958,,,,
40216,902999,HAMMOND DR NE @ 1150,,33.918901,-84.349888,,,,
40218,903000,HAMMOND DR @ PERIMETER CENTER PKY,0 HAMMOND & PERIMETER CENTER,33.920143,-84.345764,,,,
40256,903001,CHAMBLEE DUNWOODY RD@CLAIRVIEW DR,0 CHAMBLEE DUNWOODY & CLAIRVIEW,33.890777,-84.290129,,,,
40258,903033,HAMMOND DR @ CONCOURSE PKY NE,0 HAMMOND & CONCOURSE,33.919048,-84.356509,,,,
40259,902868,HAMMOND DR NE @ BARFIELD RD NE,0 HAMMOND & BARFIELD,33.919079,-84.359596,,,,
40260,902869,HAMMOND RD NE @ CONCOURSE PKY NE,0 HAMMOND & CONCOURSE,33.918621,-84.357231,,,,
40264,902896,GLENRIDGE DR@JOHNSON FERRY RD,0 GLENRIDGE & JOHNSON FERRY,33.90731,-84.36395,,,,
40268,902897,JOHNSON FERRY RD@TRIMBLE RD,0 JOHNSON FERRY & TRIMBLE,33.906706,-84.359963,,,,
40270,902898,JOHNSON FERRY@GLENRIDGE POINT PKWY,0 JOHNSON FERRY RD NE & GLENRIDGE POINT PKY NE,33.906835,-84.359623,,,,
40274,902892,GLENRIDGE DR@HIGHPOINT RD,0 GLENRIDGE DR NE & HIGH POINT RD NE,33.907218,-84.365167,,,,
40278,902893,JOHNSON FERRY RD@MERIDIAN MARKS RD,0 JOHNSON FERRY & MERIDIAN MARKS,33.907602,-84.355238,,,,
40280,902894,JOHNSON FERRY RD@HOLLIS COBB CIR,0 JOHNSON FERRY & HOLLIS COBB,33.907952,-84.354774,,,,
40298,902828,PERIMETER CTR E@ASHFORD DUNWOODY RD,0 PERIMETER & ASHFORD DUNWOODY,33.923424,-84.337561,,,,
40300,902867,PERIMETER CTR E @ LINCOLN PKY E,0 PERIMETER & LINCOLN,33.922102,-84.330101,,,,
40304,903198,ASHFORD DUNWOODY RD@MEADOW LANE RD,0 ASHFORD DUNWOODY & MEADOW LANE,33.932153,-84.337246,,,,
40314,903161,PEACHTREE DUNWOODY RD@JOHNSON FERR,0 PEACHTREE DUNWOODY & JOHNSON FERRY,33.90739,-84.3527,,,,
40318,903199,HAMMOND DR@GLENRIDGE DR,0 HAMMOND & GLENRIDGE,33.919057,-84.363941,,,,
40900,903165,MEDICAL CENTER STATION,0 PEACHTREE DUNWOODY RD NE & LAKE HEARN DR NE,33.911593,-84.35127,,,,
40910,903009,DUNWOODY STATION,0 HAMMOND DR NE & PERIMETER CENTER PKY NE,33.920969,-84.344734,,,,
40914,903010,HAMMOND DR NE @ BARFIELD RD,0 HAMMOND & BARFIELD,33.918869,-84.360835,,,,
40916,903039,PERIMETER CTR E @ 74,74 PERIMETER CENTER,33.92337,-84.33459,,,,
40918,903040,PERIMETER CTR E @ 64,64 PERIMETER CENTER,33.921298,-84.33204,,,,
40920,903041,PERIMETER CTR E @ 24,24 PERIMETER CENTER,33.925852,-84.330463,,,,
40922,903042,PERIMETER CTR E @ 20,20 PERIMETER CENTER,33.926326,-84.333034,,,,
40924,903011,PERIMETER CTR E @ 50,42 PERIMETER CTR E & COLLIER DR NW,33.924398,-84.329865,,,,
40926,903012,PERIMETER CTR E @ 24,24 PERIMETER CENTER,33.925471,-84.330847,,,,
40928,903013,PERIMETER CTR E @ 72,72 PERIMETER CENTER,33.924028,-84.334483,,,,
40930,903014,PERIMETER CTR E @ 14,,33.925948,-84.334795,,,,
40932,903043,PERIMETER CTR E @ 53,53 PERIMETER CENTER,33.921678,-84.331781,,,,
41002,903044,PEACHTREE RD@PEACHTREE INDUSTRIAL,0 PEACHTREE & PEACHTREE INDUSTRIAL,33.904514,-84.295143,,,,
41004,903076,PEACHTREE RD@SHALLOWFORD RD,0 PEACHTREE & SHALLOWFORD,33.907043,-84.296059,,,,
41005,903077,DUNWOODY PARK@SHALLOWFORD RD,0 DUNWOODY & SHALLOWFORD,33.92605,-84.31076,,,,
41006,903015,PEACHTREE RD@SHALLOWFORD RD,0 PEACHTREE & SHALLOWFORD,33.910057,-84.297264,,,,
41007,903037,PEACHTREE RD@SPRING WALK CT,0 PEACHTREE & SPRING WALK,33.912616,-84.298571,,,,
41009,903038,DUNWOODY PARK@CHAMBLEE DUNWOODY,0 DUNWOODY PARK & CHAMBLEE DUNWOODY,33.92416,-84.31453,,,,
41010,902675,PEACHTREE RD@4201,,33.916393,-84.299141,,,,
41011,902676,PEACHTREE RD@TALLEY DR,0 PEACHTREE & TALLEY,33.898655,-84.294073,,,,
41012,902757,PEACHTREE RD@TERRELL DR,0 PEACHTREE & TERRELL,33.901482,-84.294785,,,,
41013,902758,DUNWOODY PARK DR@DUNWOODY PARK N,0 DUNWOODY PARK & DUNWOODY PARK,33.92406,-84.31386,,,,
41014,902759,PEACHTREE RD@PEACHTREE INDUSTRIAL,0 PEACHTREE & PEACHTREE INDUSTRIAL,33.904251,-84.295563,,,,
41016,902760,PEACHTREE RD@PLANTATION,0 PEACHTREE & PLANTATION,33.909515,-84.297432,,,,
41018,902677,PEACHTREE RD@SHALLOWFORD RD,0 PEACHTREE & SHALLOWFORD,33.911652,-84.298615,,,,
41020,902678,PEACHTREE RD@SPRING WALK CT,0 PEACHTREE & SPRING WALK,33.912651,-84.299004,,,,
41024,902679,PEACHTREE RD@PERIMETER PARK DR,0 PEACHTREE & PERIMETER PARK,33.917071,-84.299039,,,,
41028,902680,PEACHTREE RD@PERIMETER PARK DR,0 PEACHTREE & PERIMETER PARK,33.917091,-84.29837,,,,
41030,902761,PEACHTREE RD@SAVOY DR,0 PEACHTREE & SAVOY,33.918587,-84.29715,,,,
41032,902762,PEACHTREE RD@SAVOY DR,0 PEACHTREE & SAVOY,33.91888,-84.297325,,,,
41034,902763,PEACHTREE RD@DUNWOODY XING,0 PEACHTREE & DUNWOODY,33.922049,-84.296748,,,,
41036,902764,PEACHTREE RD@KINGS POINT CIR,0 PEACHTREE & KINGS POINT,33.923561,-84.295906,,,,
41037,902681,PEACHTREE RD@BROOKHURST DR,0 PEACHTREE & BROOKHURST,33.926263,-84.295208,,,,
41063,903212,CHAMBLEE DUNWOODY RD@4680,,33.92807,-84.315081,,,,
41074,903174,CHAMBLEE DUNWOODY RD@SHALLOWFORD R,0 CHAMBLEE DUNWOODY & SHALLOWFORD,33.92777,-84.31477,,,,
41094,905480,LONGVIEW DR@ELLWYN DR,0 LONGVIEW & ELLWYN,33.908241,-84.304741,,,,
41096,905481,LONGVIEW DR@SHALLOWFORD RD,0 LONGVIEW & SHALLOWFORD,33.916668,-84.303322,,,,
41098,905596,SHALLOWFORD RD@COMMODORE DR,0 SHALLOWFORD & COMMODORE,33.917572,-84.304321,,,,
41100,905597,SHALLOWFORD RD@SAVOY DR,0 N SHALLOWFORD RD & SAVOY DR,33.919663,-84.305015,,,,
41102,905598,SHALLOWFORD RD@SAVOY DR,0 SHALLOWFORD & SAVOY,33.919449,-84.304688,,,,
41104,905599,SHALLOWFORD RD@COTILLION DR,0 SHALLOWFORD & COTILLION,33.920963,-84.305313,,,,
41106,905482,SHALLOWFORD RD@COTILLION DR,0 SHALLOWFORD & COTILLION,33.921393,-84.305902,,,,
41108,905483,SHALLOWFORD RD@PEACHFORD RD,0 SHALLOWFORD & PEACHFORD,33.92347,-84.306676,,,,
41110,905484,SHALLOWFORD RD@4500,,33.924416,-84.307587,,,,
41114,905485,SHALLOWFORD RD@PERNOSHALL CT,0 SHALLOWFORD & PERNOSHALL,33.925301,-84.30925,,,,
41116,905600,SHALLOWFORD RD@PERNOSHALL CT,0 N SHALLOWFORD RD & PERNOSHAL CT,33.92565,-84.308827,,,,
41118,905601,DUNWOODY PARK@SHALLOWFORD RD,0 N SHALLOWFORD RD & PERNOSHAL CT,33.926527,-84.310014,,,,
41126,905834,PEELER RD@SHALLOWFORD RD,0 PEELER & SHALLOWFORD,33.929531,-84.313705,,,,
41128,905716,PEELER RD@INDEPENDENCE SQ,0 PEELER & INDEPENDENCE,33.929836,-84.311333,,,,
41150,905836,SHALLOWFORD RD@PEACHFORD RD,0 SHALLOWFORD & PEACHFORD,33.923257,-84.306941,,,,
41152,905837,PEACHTREE RD@PEACHTREE INDUSTRIAL,0 PEACHTREE & PEACHTREE INDUSTRIAL,33.90627,-84.29578,,,,
41154,905838,PEACHTREE RD@SPRING WALK CT,0 PEACHTREE & SPRING WALK,33.914202,-84.298961,,,,
41156,905720,PEACHTREE RD@DUNWOODY XING,0 PEACHTREE & DUNWOODY,33.922156,-84.296276,,,,
41158,905721,PEACHTREE RD@FOREST TRL,0 PEACHTREE & FOREST,33.924215,-84.296204,,,,
41160,905722,PEACHTREE RD@SPRING WALK CT,0 PEACHTREE & SPRING WALK,33.914177,-84.299467,,,,
41162,905723,PEACHTREE RD@PEACHTREE INDUSTRIAL,0 PEACHTREE & PEACHTREE INDUSTRIAL,33.906264,-84.296232,,,,
41164,905839,PEACHTREE RD @ INGERSOLL RAND DR,0 PEACHTREE & INGERSOLL RAND,33.895703,-84.295509,,,,
41166,905840,PEELER RD@OLDE VILLAGE LN,0 PEELER & OLDE VILLAGE,33.934118,-84.30777,,,,
41168,906075,SHALLOWFORD RD@PEACHFORD RD,0 SHALLOWFORD & PEACHFORD,33.924188,-84.307903,,,,
41170,906076,PEACHTREE RD@GENTRYS WALK,0 PEACHTREE & GENTRYS,33.916567,-84.299462,,,,
42002,906077,PARK AVE @ BUFORD HWY,0 PARK & BUFORD,33.900574,-84.279099,,,,
42007,905966,WOODWIN RD@TILLY MILL RD,0 WOODWIN & TILLY MILL,33.91891,-84.27988,,,,
42009,905968,TILLY MILL RD@PEACHTREE INDUSTRIAL,0 TILLY MILL & PEACHTREE INDUSTRIAL,33.92241,-84.28113,,,,
42011,906079,PEACHTREE INDUSTRIAL BLVD@PEACHTRE,0 PEACHTREE INDUSTRIAL BLVD & PEACHTREE SQ,33.924765,-84.278342,,,,
42013,906081,PEACHTREE INDUSTRIAL BLVD@PEACHTRE,0 PEACHTREE INDUSTRIAL BLVD & PEACHTREE SQ,33.9254,-84.276806,,,,
42015,905970,WINTERS CHAPEL RD NW@AMWILER RD NW,0 WINTERS CHAPEL RD & AMWILER RD NW,33.929842,-84.264828,,,,
42016,905971,BUFORD HWY@5700,5700 BUFORD HWY NE,33.906469,-84.269846,,,,
42017,906015,WINTERS CHAPEL RD@CLARKE DR,0 WINTERS CHAPEL & CLARKE,33.92805,-84.26731,,,,
42018,906016,BUFORD HWY@JESSE NORMAN WAY,0 BUFORD & JESSE NORMAN,33.900372,-84.276535,,,,
42019,905262,WINTERS CHAPEL RD@HOMELAND DR,0 WINTERS CHAPEL & HOMELAND,33.92633,-84.26926,,,,
42020,905263,BUFORD HWY@LONGMIRE,0 BUFORD & LONGMIRE,33.904778,-84.271301,,,,
42021,905264,WINTERS CHAPEL RD@HOMELAND DR,0 WINTERS CHAPEL & HOMELAND,33.92502,-84.27004,,,,
42022,905375,OAKCLIFF RD@BUFORD HWY,0 OAKCLIFF & BUFORD,33.91108,-84.26247,,,,
42023,905376,WINTERS CHAPEL RD@CHICOPEE RD,0 WINTERS CHAPEL & CHICOPEE,33.9208,-84.27014,,,,
42024,905377,WINTERS CHAPEL RD@OAKCLIFF RD,0 WINTERS CHAPEL & OAKCLIFF,33.91902,-84.26971,,,,
42025,905378,WOODWIN RD@WINTERS CHAPEL RD,0 WOODWIN & WINTERS CHAPEL,33.91494,-84.27038,,,,
42026,905379,BUFORD HWY@MCELROY RD,0 BUFORD & MCELROY,33.906906,-84.268456,,,,
42027,905265,WOODWIN RD@2766,,33.9176,-84.27571,,,,
42028,905266,BUFORD HWY@MCELROY RD,0 BUFORD & MCELROY,33.908424,-84.267059,,,,
42040,905383,PEACHTREE RD@TERRELL DR,0 PEACHTREE & TERRELL,33.90139,-84.294334,,,,
42042,905311,PEACHTREE IND BLVD @ JOHN GLENN DR,0 PEACHTREE INDUSTRIAL & JOHN GLENN,33.904964,-84.294724,,,,
42044,906145,PEACHTREE INDUSTRIAL BLVD @ 5855,,33.906235,-84.293503,,,,
42046,906146,PEACHTREE INDUSTRIAL BLVD @ 5901,,33.90757,-84.291901,,,,
42048,906147,PEACHTREE IND BLVD @ PEACHTREE RD,0 PEACHTREE INDUSTRIAL & PEACHTREE,33.909157,-84.290352,,,,
42050,906173,TILLY MILL RD@PEACHTREE INDUSTRIAL,0 TILLY MILL & PEACHTREE INDUSTRIAL,33.924126,-84.281784,,,,
42052,906174,TILLY MILL RD@STONINGTON RD,0 TILLY MILL & STONINGTON,33.926346,-84.2827,,,,
42054,906175,TILLY MILL RD@BINGHAMTON DR,0 TILLY MILL & BINGHAMTON,33.927448,-84.283165,,,,
42056,906176,TILLY MILL RD@LAURELWOOD RD,0 TILLY MILL & LAURELWOOD,33.928722,-84.283371,,,,
42057,906148,TILLY MILL RD@BRIERS NORTH DR,0 TILLY MILL & BRIERS NORTH,33.932555,-84.285103,,,,
42058,906149,PEACHTREE INDUSTRIAL BLVD@TILLY MI,0 PEACHTREE INDUSTRIAL BLVD & ACCESS RD S,33.924345,-84.280652,,,,
42062,906151,PEACHTREE INDUSTRIAL BLVD@HOMELAND,0 PEACHTREE INDUSTRIAL BLVD & ACCESS RD S,33.925901,-84.277437,,,,
42064,906177,PEACHTREE INDUSTRIAL BLVD@6706,6706 PEACHTREE INDUSTRIAL BLVD & ACCESS RD S,33.926858,-84.275247,,,,
42066,906178,PEACHTREE INDUSTRIAL@PEACHTREE P,0 PEACHTREE INDUSTRIAL & PEACHTREE PLACE,33.929659,-84.268837,,,,
42068,906179,PEACHTREE IND BLVD @ N SHALLOWFORD,0 PEACHTREE INDUSTRIAL & SHALLOWFORD,33.909264,-84.291458,,,,
42070,906180,PEACHTREE IND BLVD @ JOHN GLENN DR,0 PEACHTREE INDUSTRIAL & JOHN GLENN,33.90604,-84.294632,,,,
42074,906199,NEW PEACHTREE RD@6145,,33.905369,-84.275848,,,,
42076,906200,NEW PEACHTREE RD@LONGMIRE WAY,0 NEW PEACHTREE & LONGMIRE,33.907101,-84.27327,,,,
42078,906205,NEW PEACHTREE RD@MCELROY RD,0 NEW PEACHTREE & MCELROY,33.909985,-84.269602,,,,
42080,906206,NEW PEACHTREE RD@MCELROY RD,0 NEW PEACHTREE & MCELROY,33.91048,-84.267937,,,,
42081,906207,NEW PEACHTREE RD@MCELROY RD,0 NEW PEACHTREE & MCELROY,33.911097,-84.267569,,,,
42082,906208,NEW PEACHTREE RD@OAKCLIFF RD,0 NEW PEACHTREE & OAKCLIFF,33.911481,-84.265773,,,,
42084,906232,OAKCLIFF RD@3061,,33.910664,-84.262833,,,,
42086,906233,OAKCLIFF RD@WINDSOR OAK DR,0 OAKCLIFF & WINDSOR OAK,33.910253,-84.260493,,,,
42088,906234,OAKCLIFF RD@PIN OAK CIR,0 OAKCLIFF & PIN OAK,33.906639,-84.254774,,,,
42090,906235,OAKCLIFF RD@3417,,33.905003,-84.254997,,,,
42092,906209,OAKCLIFF RD@OAKCLIFF INDUSTRIAL ST,0 OAKCLIFF & OAKCLIFF INDUSTRIAL,33.902653,-84.253784,,,,
42094,906210,OAKCLIFF RD@NORTHCREST RD,0 OAKCLIFF & NORTHCREST,33.900501,-84.250763,,,,
42096,906211,OAKCLIFF RD@OAKCLIFF INDUSTRIAL CT,0 OAKCLIFF & OAKCLIFF INDUSTRIAL,33.903126,-84.247986,,,,
42098,906212,OAKCLIFF RD@PLEASANTDALE RD,0 OAKCLIFF & PLEASANTDALE,33.904232,-84.246613,,,,
42100,906236,PLEASANTDALE RD@4126,,33.902714,-84.245125,,,,
42102,906237,NEW PEACHTREE RD@OAKCLIFF RD,0 NEW PEACHTREE & OAKCLIFF,33.911662,-84.265991,,,,
42104,906258,OAKCLIFF RD@3066,,33.910923,-84.261673,,,,
42106,906259,OAKCLIFF RD@WINDSOR OAK DR,0 OAKCLIFF & WINDSOR OAK,33.910366,-84.259682,,,,
42108,906260,OAKCLIFF RD@PIN OAK CIR,0 OAKCLIFF & PIN OAK,33.906178,-84.254303,,,,
42109,906261,OAKCLIFF RD@PIN OAK CIR,0 OAKCLIFF RD & PIN OAK CIR,33.910285,-84.259288,,,,
42110,906266,OAKCLIFF RD@3420,,33.904068,-84.25386,,,,
42112,906267,OAKCLIFF RD@OAKCLIFF INDUSTRIAL ST,0 OAKCLIFF & OAKCLIFF INDUSTRIAL,33.902237,-84.252762,,,,
42114,906268,OAKCLIFF RD@NORTHCREST RD,0 OAKCLIFF & NORTHCREST,33.901089,-84.251091,,,,
42116,906269,OAKCLIFF RD@OAKCLIFF INDUSTRIAL CT,0 OAKCLIFF & OAKCLIFF INDUSTRIAL,33.903778,-84.248024,,,,
42118,906274,OAKCLIFF RD@PLEASANTDALE,0 OAKCLIFF & PLEASANTDALE,33.904808,-84.246941,,,,
42120,906275,NEW PEACHTREE RD@LONGMIRE WAY,0 NEW PEACHTREE & LONGMIRE,33.9104,-84.269789,,,,
42122,906276,NEW PEACHTREE RD@LONGMIRE WAY,0 NEW PEACHTREE & LONGMIRE,33.90786,-84.273186,,,,
42124,906277,NEW PEACHTREE RD@6145,,33.905743,-84.276077,,,,
42126,906270,PLEASANTDALE RD@OAKCLIFF RD,0 PLEASANTDALE & OAKCLIFF,33.904041,-84.245467,,,,
42130,906271,PEACHTREE INDUSTRIAL BLVD@6670,6670 GA-141 S & ACCESS RD S,33.92793,-84.272718,,,,
42144,906272,PEACHTREE INDUSTRIAL BLVD@6750,,33.929274,-84.269976,,,,
42166,905338,OAKCLIFF RD@PIN OAK CIR,0 OAKCLIFF & PIN OAK,33.909998,-84.259586,,,,
42182,905459,NEW PEACHTREE RD@LONGMIRE WAY,0 NEW PEACHTREE & LONGMIRE,33.908977,-84.27184,,,,
42900,905508,DORAVILLE STATION,0 NEW PEACHTREE RD & CENTRAL AVE,33.902424,-84.280467,,,,
44002,905577,ROSWELL RD NE @ MIDVALE DR NE,0 ROSWELL RD NE & MIDVALE DR NE,33.872971,-84.38097,,,,
44004,905578,ROSWELL RD NE @ WIEUCA RD NE,0 ROSWELL & WIEUCA,33.87506,-84.38073,,,,
44006,905579,ROSWELL RD NE@WIEUCA RD,0 ROSWELL & WIEUCA,33.876369,-84.380066,,,,
44008,905627,ROSWELL RD NE@WINDSOR PKWY NE,0 ROSWELL & WINDSOR,33.878613,-84.379715,,,,
44010,905628,ROSWELL RD NE@HEDDEN ST NE,0 ROSWELL & HEDDEN,33.880424,-84.379562,,,,
44014,905629,ROSWELL RD NE@MYSTIC PL NE,0 ROSWELL & MYSTIC,33.88297,-84.37994,,,,
44016,905630,ROSWELL RD NE@MYSTIC DR NE,0 ROSWELL & MYSTIC,33.885548,-84.381348,,,,
44018,905580,ROSWELL RD NE @ MIDVALE,0 ROSWELL & MIDVALE,33.872848,-84.381347,,,,
44020,905626,ROSWELL RD NE @ WIEUCA RD,0 ROSWELL & WIEUCA,33.87583,-84.38081,,,,
44022,905811,ROSWELL RD NE@WIEUCA RD,0 ROSWELL & WIEUCA,33.87693,-84.38019,,,,
44024,905812,ROSWELL RD NE@WINDSOR PKWY NE,0 ROSWELL & WINDSOR,33.878807,-84.380089,,,,
44028,905814,ROSWELL RD NE@OSNER DR NE,0 ROSWELL & OSNER,33.895194,-84.381658,,,,
44030,905743,ROSWELL RD NE@MT PARAN RD NE,0 ROSWELL RD & MT PARAN RD NE,33.897841,-84.381543,,,,
44032,905744,ROSWELL RD NE@MARYEANNA DR,0 ROSWELL & MARYEANNA,33.900208,-84.380478,,,,
44034,905745,ROSWELL RD NE@HEDDEN ST,0 ROSWELL & HEDDEN,33.881819,-84.380123,,,,
44036,905746,ROSWELL RD NE@MYSTIC PL NE,0 ROSWELL & MYSTIC,33.883057,-84.380524,,,,
44038,905815,ROSWELL RD NE@MYSTIC DR,0 ROSWELL RD NE & MYSTIC DR NE,33.884418,-84.380749,,,,
44040,905816,ROSWELL RD NE@MYSTIC DR NE,0 ROSWELL & MYSTIC,33.885479,-84.381752,,,,
44042,905863,ROSWELL RD NE@LONG ISLAND DR NE,0 ROSWELL & LONG ISLAND,33.887681,-84.381734,,,,
44045,905864,ROSWELL RD NE@W BELLE ISLE RD NE,0 ROSWELL & BELLE ISLE,33.890163,-84.381524,,,,
44046,905869,ROSWELL RD NE@HARDEMAN RD,0 ROSWELL RD & HARDEMAN RD NE,33.892714,-84.381212,,,,
44058,905870,ROSWELL RD NE@MYSTIC DR,0 ROSWELL & MYSTIC,33.884354,-84.380608,,,,
44062,905871,ROSWELL RD NE@LONG ISLAND DR NE,0 ROSWELL & LONG ISLAND,33.887642,-84.381508,,,,
44064,905988,ROSWELL RD NE@BELLE ISLE RD NE,0 ROSWELL & BELLE ISLE,33.890188,-84.381275,,,,
44066,905989,ROSWELL RD NE@PARK AVE NE,0 ROSWELL RD NE & PARK AVE NE,33.892866,-84.381125,,,,
44074,906102,ROSWELL RD NE@BEACHLAND DR NE,0 ROSWELL & BEACHLAND,33.89771,-84.38142,,,,
44078,905991,ROSWELL RD NE@GREEN HILL RD NE,0 ROSWELL & GREEN HILL,33.90044,-84.38,,,,
44080,905992,ROSWELL RD NE@GLENRIDGE DR,0 ROSWELL & GLENRIDGE,33.901408,-84.379235,,,,
45035,905582,GLENRIDGE DR NE@5501,,33.905803,-84.368608,,,,
45104,905587,PEACHTREE RD NE @ HERMANCE DR NE,0 PEACHTREE & HERMANCE,33.871537,-84.332355,,,,
45106,905588,PEACHTREE RD @ LANIER DR,0 PEACHTREE & LANIER,33.873621,-84.33044,,,,
45108,905471,PEACHTREE RD@LANIER DR,0 PEACHTREE & LANIER,33.874252,-84.330246,,,,
45110,905472,PEACHTREE RD@HERMANCE DR,0 PEACHTREE RD NE & HERMANCE DR NE,33.871615,-84.332453,,,,
45182,905705,GLENRIDGE DR@5512,,33.90574,-84.36901,,,,
46006,905824,CHAMBLEE DUNWOODY RD@CATALINA DR,0 CHAMBLEE DUNWOODY & CATALINA,33.891926,-84.297928,,,,
46008,905707,NEW PEACHTREE RD@HOOD AVE,0 NEW PEACHTREE & HOOD,33.889669,-84.301955,,,,
46010,905708,JOHNSON FERRY RD @ JEFFERSON CIR S,JOHNSON FERRY RD NE & JEFFERSON CIR S,33.886883,-84.317078,,,,
46020,905825,JOHNSON FERRY RD @ KESWICK DR,0 JOHNSON FERRY & KESWICK,33.888409,-84.318524,,,,
46025,906065,JOHNSON FERRY RD NE@ DONALDSON DR,0 JOHNSON FERRY & DONALDSON DR,33.891568,-84.324337,,,,
46032,905951,PEACHTREE RD @ ASHFORD DUNWOODY RD,0 PEACHTREE & ASHFORD DUNWOODY,33.875326,-84.327858,,,,
46034,905952,PEACHTREE RD NE @ REDDING RD NE,0 PEACHTREE & REDDING,33.876324,-84.326092,,,,
46044,906066,PEACHTREE IND BLVD @ MALONE DR,0 PEACHTREE INDUSTRIAL & MALONE,33.891888,-84.308876,,,,
46046,906067,PEACHTREE IND BLVD @ MILLER DR,0 PEACHTREE INDUSTRIAL & MILLER,33.892483,-84.307724,,,,
46048,906068,PEACHTREE IND BLVD @ PIERCE DR,0 PEACHTREE INDUSTRIAL & PIERCE,33.89416,-84.306124,,,,
46050,906069,PEACHTREE IND BLVD @ CHAMBLEE DUNWO,0 PEACHTREE INDUSTRIAL & CHAMBLEE DUNWOODY,33.895151,-84.304952,,,,
46052,905954,PEACHTREE IND BLVD @ IVY LN,0 PEACHTREE INDUSTRIAL & IVY,33.897538,-84.302604,,,,
46058,906003,PEACHTREE IND BLVD @ BROAD ST,0 PEACHTREE INDUSTRIAL & BROAD,33.8988,-84.302032,,,,
46060,905247,PEACHTREE IND BLVD @ IVY LN,0 PEACHTREE INDUSTRIAL & IVY,33.897797,-84.302971,,,,
46062,905361,PTREE IND BLVD @ CHAMBLEE DUNWOODY,0 PEACHTREE INDUSTRIAL & CHAMBLEE DUNWOODY,33.895405,-84.305199,,,,
46066,905363,PEACHTREE IND BLVD @ MILLER DR,0 PEACHTREE INDUSTRIAL & MILLER,33.89325,-84.307861,,,,
46070,905248,PEACHTREE IND BLVD @ CLAIRMONT RD,0 PEACHTREE INDUSTRIAL & CLAIRMONT,33.88939,-84.312671,,,,
46078,905249,PEACHTREE RD NE@4829,,33.881317,-84.320793,,,,
46080,905250,PEACHTREE RD@REDDING RD,0 PEACHTREE & REDDING,33.876842,-84.325771,,,,
46082,905251,PEACHTREE RD@ASHFORD DUNWOODY RD,0 PEACHTREE & ASHFORD DUNWOODY,33.875843,-84.327503,,,,
46094,905299,PEACHTREE RD@MILLER DR,0 PEACHTREE & MILLER,33.889427,-84.304611,,,,
46114,905490,LONGVIEW DR@PEACHTREE INDUSTRIAL B,0 LONGVIEW & PEACHTREE INDUSTRIAL,33.900559,-84.300449,,,,
46116,905537,LONGVIEW DR@PEACHTREE INDUSTRIAL B,0 LONGVIEW & PEACHTREE INDUSTRIAL,33.899975,-84.300888,,,,
46118,905538,CHAMBLEE TUCKER RD@HOSPITAL AVE,0 CHAMBLEE TUCKER & HOSPITAL,33.885731,-84.294586,,,,
46120,905539,CHAMBLEE TUCKER RD@CATALINA DR,0 CHAMBLEE TUCKER & CATALINA,33.885765,-84.297928,,,,
46122,905608,CHAMBLEE TUCKER RD@HOOD AVE,0 CHAMBLEE TUCKER & HOOD,33.885761,-84.300507,,,,
46126,905609,CHAMBLEE TUCKER RD@WATKINS AVE,0 CHAMBLEE TUCKER & WATKINS,33.885777,-84.30336,,,,
46128,905610,CHAMBLEE TUCKER RD@NEW PEACHTREE R,0 CHAMBLEE TUCKER & NEW PEACHTREE,33.885818,-84.305,,,,
46132,905650,CHAMBLEE TUCKER RD@FLIGHTWAY DR,0 CHAMBLEE TUCKER & FLIGHTWAY,33.885353,-84.298279,,,,
46138,905841,CHAMBLEE TUCKER RD@WATKINS AVE,0 CHAMBLEE TUCKER & WATKINS,33.885315,-84.303444,,,,
46152,905842,NEW PEACHTREE RD@HARDEE AVE,0 NEW PEACHTREE RD & HARDEE AVE,33.885844,-84.308094,,,,
46156,905725,NEW PEACHTREE RD @ HARDEE AVE,0 NEW PEACHTREE RD & HARDEE AVE,33.885736,-84.308323,,,,
46180,905895,NEW PEACHTREE RD @ HOOD AVE,0 NEW PEACHTREE & HOOD,33.889604,-84.301543,,,,
46182,906083,NEW PEACHTREE RD@CHAMBLEE TUCKER RD,0 NEW PEACHTREE & CHAMBLEE TUCKER,33.8906,-84.300334,,,,
46184,906084,NEW PEACHTREE RD@CHAMBLEE DUNWOODY,0 NEW PEACHTREE & CHAMBLEE DUNWOODY,33.891335,-84.299065,,,,
46186,906085,CHAMBLEE DUNWOODY RD@BLACKBURN WAY,0 CHAMBLEE DUNWOODY & BLACKBURN,33.891281,-84.297318,,,,
46200,906017,JOHNSON FERRY RD @ KESWICK DR,0 JOHNSON FERRY & KESWICK,33.888433,-84.318772,,,,
46202,905191,PEACHTREE IND BLVD @ MCGAW DR,0 PEACHTREE INDUSTRIAL & MCGAW,33.887081,-84.314278,,,,
46204,905193,PEACHTREE IND BLVD @ CHAMBLEE TUCKE,0 PEACHTREE INDUSTRIAL BLVD & CHAMBLEE TUCKER RD,33.890095,-84.311437,,,,
46216,905314,CLAIRMONT RD@TOBEY RD,0 GA-155 & N TOBEY RD NE <NULLS>,33.872205,-84.30936,,,,
46218,905384,CLAIRMONT RD@AIRPORT RD,0 CLAIRMONT RD NE & AIRPORT RD,33.876358,-84.309403,,,,
46220,905385,CLAIRMONT RD@DYER CIR,0 CLAIRMONT RD NE & GA-155,33.880609,-84.309424,,,,
46222,905386,CLAIRMONT RD NE@LAWSON WAY,0 CLAIRMONT RD NE & LAWSON WAY,33.882005,-84.309424,,,,
46224,905387,CLAIRMONT RD@WINGATE RD,0 CLAIRMONT & WINGATE,33.882732,-84.309395,,,,
46226,905315,CLAIRMONT RD@NEW PEACHTREE RD,0 CLAIRMONT RD NE & NEW PEACHTREE RD,33.885218,-84.310055,,,,
46234,905316,CLAIRMONT RD@WINGATE RD,0 CLAIRMONT & WINGATE,33.88316,-84.309731,,,,
46236,905317,CLAIRMONT RD NE@LAWSON WAY,0 CLAIRMONT & LAWSON,33.88205,-84.309761,,,,
46238,905318,CLAIRMONT RD@FIFTH ST,0 CLAIRMONT RD NE & 5TH ST,33.880197,-84.309511,,,,
46240,906120,CLAIRMONT RD@EIGHTH ST,0 CLAIRMONT & EIGHTH,33.876839,-84.309708,,,,
46242,906121,CLAIRMONT RD@NINTH ST,0 CLAIRMONT & NINTH,33.875534,-84.309738,,,,
46262,906122,PEACHTREE IND BLVD @ PEACHTREE RD,0 PEACHTREE INDUSTRIAL & PEACHTREE,33.883234,-84.316993,,,,
46263,906123,PEACHTREE IND BLVD @ JOHNSON FERRY,PEACHTREE IND BLVD & JOHNSON FERRY RD NE,33.886024,-84.315292,,,,
46264,905319,PEACHTREE RD NE @ 4829,4738 PEACHTREE,33.880898,-84.320503,,,,
46273,906155,CHAMBLEE TUCKER RD@HOSPITAL AVE,0 CHAMBLEE TUCKER & HOSPITAL,33.885362,-84.296443,,,,
46276,906181,PEACHTREE RD@CHAMBLEE DUNWOODY WAY,0 PEACHTREE & CHAMBLEE DUNWOODY,33.891821,-84.301478,,,,
46280,906183,LONGVIEW DR@ADMIRAL DR,0 LONGVIEW & ADMIRAL,33.901754,-84.302145,,,,
46308,906214,JOHNSON FERRY RD @ ASHFORD DUNWOODY,0 JOHNSON FERRY & ASHFORD DUNWOODY,33.892477,-84.327067,,,,
46310,906215,CLAIRMONT RD @ NEW PEACHTREE RD,0 CLAIRMONT RD NE & NEW PEACHTREE RD,33.885092,-84.310065,,,,
46328,906242,CHAMBLEE DUNWOODY RD@BLACKBURN WAY,0 CHAMBLEE DUNWOODY RD & BLACKBURN WAY,33.89182,-84.296821,,,,
46334,905395,JOHNSON FERRY @ JEFFERSON CIR N,0 JOHNSON FERRY RD NE & JEFFERSON CIR NRD NE,33.887411,-84.317971,,,,
46336,905509,PEACHTREE INDUSTRIAL@JOHNSON FER,0 PEACHTREE INDUSTRIAL & JOHNSON FERRY,33.885612,-84.315807,,,,
46338,905510,LONGVIEW DR@ADMIRAL DR,0 LONGVIEW & ADMIRAL,33.902012,-84.302663,,,,
46509,905398,PEACHTREE IND BLVD @ MCGAW DR,0 PEACHTREE INDUSTRIAL & MCGAW,33.886837,-84.315007,,,,
46900,905514,PEACHTREE  RD @ MALONE  DR,0 PEACHTREE  RD & MALONE  DR,33.887675,-84.305039,,,,
46901,905515,PEACHTREE  RD@MALONE  DR,0 PEACHTREE  RD & MALONE  DR,33.888495,-84.305504,,,,
47064,905747,BUFORD HWY@WOODSIDE WAY,0 BUFORD & WOODSIDE,33.874538,-84.294174,,,,
47065,905748,BUFORD HWY NE@SHALLOWFORD TER,0 BUFORD & SHALLOWFORD,33.876551,-84.293638,,,,
47069,905631,BUFORD HWY@CHAMBLEE TUCKER RD,0 BUFORD & CHAMBLEE TUCKER,33.885334,-84.2883,,,,
47080,905632,BUFORD HWY NE@SHALLOWFORD TER,0 BUFORD & SHALLOWFORD,33.877098,-84.29287,,,,
47082,905633,BUFORD HWY NE@4707,,33.879169,-84.291641,,,,
47084,905634,BUFORD HWY NE@BEVERLY HILLS DR,0 BUFORD & BEVERLY HILLS,33.88166,-84.290329,,,,
47092,905865,BUFORD HWY NE@CHAMBLEE DUNWOODY RD,0 BUFORD & CHAMBLEE DUNWOODY,33.888836,-84.286339,,,,
47094,905866,BUFORD HWY NE@SHALLOWFORD RD,0 BUFORD & SHALLOWFORD,33.889614,-84.285942,,,,
47096,905867,BUFORD HWY NE@MCCLAVE DR,0 BUFORD & MCCLAVE,33.891457,-84.284859,,,,
47098,905868,BUFORD HWY NE@SHALLOWFORD RD,0 BUFORD & SHALLOWFORD,33.890509,-84.285772,,,,
47100,905873,BUFORD HWY NE@MCCLAVE DR,0 BUFORD & MCCLAVE,33.892021,-84.285042,,,,
47102,905874,BUFORD HWY NE@5200,,33.893547,-84.283691,,,,
47104,905875,BUFORD HWY NE@5269,,33.89616,-84.281937,,,,
47106,905876,BUFORD HWY NE@5200,,33.894283,-84.28392,,,,
47108,905994,BUFORD HWY NE@5280,,33.896751,-84.282181,,,,
47110,905995,BUFORD HWY NE@OAKMONT AVE,0 BUFORD & OAKMONT,33.897614,-84.28022,,,,
47112,905996,BUFORD HWY NE@OAKMONT AVE,0 BUFORD & OAKMONT,33.899239,-84.278969,,,,
47114,905997,BUFORD HWY@LONGMIRE,0 BUFORD & LONGMIRE,33.905585,-84.271166,,,,
47116,905877,BUFORD HWY NE @ JESSE NORMAN WAY,0 BUFORD & JESSE NORMAN,33.901501,-84.276382,,,,
47120,905926,PRESIDENTIAL DR@3110,,33.886769,-84.261007,,,,
47122,905164,PRESIDENTIAL PKY@3835,,33.888519,-84.263229,,,,
47123,906112,PEACHTREE RD@AMERICAN INDUSTRIAL W,0 PEACHTREE & AMERICAN INDUSTRIAL,33.892035,-84.300876,,,,
47124,906113,PRESIDENTIAL DR@PRESIDENTIAL PKY,0 PRESIDENTIAL DR & PRESIDENTIAL PKY,33.88736,-84.265003,,,,
47125,906114,PEACHTREE RD@BROAD ST,0 PEACHTREE & BROAD,33.894044,-84.298702,,,,
47127,906108,PEACHTREE RD@PEACHTREE RD,0 PEACHTREE & PEACHTREE,33.895878,-84.294776,,,,
47128,906109,PEACHTREE RD@PEACHTREE RD,0 PEACHTREE & PEACHTREE,33.896618,-84.293777,,,,
47130,906110,PEACHTREE RD@CLEMSON DR,0 PEACHTREE & CLEMSON,33.898819,-84.2938,,,,
47131,906115,PEACHTREE RD@BROAD ST,0 PEACHTREE & BROAD,33.89387,-84.299407,,,,
47132,906116,PEACHTREE RD@PEACHTREE RD,0 PEACHTREE & PEACHTREE,33.896404,-84.294098,,,,
47133,906117,PEACHTREE RD@BROAD ST,0 PEACHTREE & BROAD,33.894593,-84.297396,,,,
47134,905163,SHALLOWFORD RD@WOODSIDE WAY,0 SHALLOWFORD RD NE & WOODSIDE WAY,33.873919,-84.290012,,,,
47135,905231,SHALLOWFORD RD@SHALLOWFORD PL,0 SHALLOWFORD & SHALLOWFORD,33.878496,-84.286951,,,,
47136,905232,SHALLOWFORD RD@BEVERLY HILLS DR,0 SHALLOWFORD & BEVERLY HILLS,33.87949,-84.286942,,,,
47137,905233,SHALLOWFORD RD NE@LA VENTURE DR,0 SHALLOWFORD & LA VENTURE,33.883345,-84.284812,,,,
47139,905234,SHALLOWFORD RD NE@ADDISON DR,0 SHALLOWFORD & ADDISON,33.886088,-84.284942,,,,
47140,905349,CHAMBLEE DUNWOODY RD@BUFORD HWY,0 CHAMBLEE DUNWOODY & BUFORD,33.889132,-84.286113,,,,
47142,905354,CHAMBLEE DUNWOODY RD@BUFORD HWY,0 CHAMBLEE DUNWOODY & BUFORD,33.889874,-84.287346,,,,
47143,905355,CHAMBLEE TUCKER RD@HOOD AVE,0 CHAMBLEE TUCKER & HOOD,33.885533,-84.300581,,,,
47144,905356,CHAMBLEE DUNWOODY RD@CLAIRVIEW DR,0 CHAMBLEE DUNWOODY RD & CLAIRVIEW DR,33.890529,-84.289166,,,,
47146,905402,CHAMBLEE DUNWOODY RD@3219,3219 CHAMBLEE DUNWOODY & CLAIRVIEW,33.891109,-84.289986,,,,
47148,905350,CHAMBLEE DUNWOODY RD@CUMBERLAND DR,0 CHAMBLEE DUNWOODY & CUMBERLAND,33.891835,-84.292583,,,,
47150,905351,CHAMBLEE DUNWOODY RD@HOSPITAL AVE,0 CHAMBLEE DUNWOODY & HOSPITAL,33.891884,-84.294685,,,,
47152,905352,CHAMBLEE TUCKER RD@BARKSIDE CT,0 CHAMBLEE TUCKER & BARKSIDE,33.880451,-84.263403,,,,
47158,905353,CHAMBLEE TUCKER RD@DEKALB TECH PKWY,0 CHAMBLEE TUCKER & DEKALB TECHNOLOGY,33.880169,-84.274483,,,,
47162,905403,CHAMBLEE TUCKER RD@HOLIDAY PL,0 CHAMBLEE TUCKER RD & HOLIDAY PL,33.882355,-84.278966,,,,
47164,905404,CHAMBLEE TUCKER RD@BAGLEY DR,0 CHAMBLEE TUCKER & BAGLEY,33.883282,-84.281937,,,,
47166,905405,CHAMBLEE TUCKER RD@SHALLOWFORD RD,0 CHAMBLEE TUCKER & SHALLOWFORD,33.885647,-84.284843,,,,
47168,905406,CHAMBLEE TUCKER RD@CARROLL CIR,0 CHAMBLEE TUCKER & CARROLL,33.88575,-84.28986,,,,
47170,905475,CHAMBLEE TUCKER RD@CUMBERLAND DR,0 CHAMBLEE TUCKER & CUMBERLAND,33.885757,-84.29155,,,,
47174,905522,CHAMBLEE TUCKER RD@ALTON RD,0 CHAMBLEE TUCKER & ALTON,33.880747,-84.262274,,,,
47180,905474,CHAMBLEE TUCKER RD@DRESDEN DR,0 CHAMBLEE TUCKER & DRESDEN,33.8799,-84.27464,,,,
47182,905589,CHAMBLEE TUCKER RD@DEKALB TECHNOLO,0 CHAMBLEE TUCKER & DEKALB TECHNOLOGY,33.880852,-84.276367,,,,
47184,905590,CHAMBLEE TUCKER RD@HOLIDAY PL,0 CHAMBLEE TUCKER & HOLIDAY,33.881962,-84.280029,,,,
47186,905591,CHAMBLEE TUCKER RD@SHALLOWFORD RD,0 CHAMBLEE TUCKER RD & SHALLOWFORD RD,33.885606,-84.28515,,,,
47192,905592,CHAMBLEE TUCKER RD@HOSPITAL AVE,0 CHAMBLEE TUCKER & HOSPITAL,33.885408,-84.294089,,,,
47204,905594,CHAMBLEE DUNWOODY RD@HOSPITAL AVE,0 CHAMBLEE DUNWOODY & HOSPITAL,33.891628,-84.294746,,,,
47206,905595,CHAMBLEE DUNWOODY RD@CUMBERLAND DR,0 CHAMBLEE DUNWOODY & CUMBERLAND,33.891346,-84.293098,,,,
47208,905635,CHAMBLEE DUNWOODY RD@BUFORD,0 CHAMBLEE DUNWOODY & BUFORD,33.889158,-84.286744,,,,
47210,905640,SHALLOWFORD RD@ADDISON DR,0 SHALLOWFORD & ADDISON,33.886479,-84.285319,,,,
47212,905641,SHALLOWFORD RD@LA VENTURE DR,0 SHALLOWFORD RD NE & LAVENTURE DR,33.883735,-84.284922,,,,
47214,905828,SHALLOWFORD RD@ORTEGA,0 SHALLOWFORD & ORTEGA,33.881742,-84.286106,,,,
47216,905711,SHALLOWFORD RD@SHALLOWFORD PL,0 SHALLOWFORD & SHALLOWFORD,33.878983,-84.287407,,,,
47218,905755,SHALLOWFORD RD@SHALLOWFORD TER,0 SHALLOWFORD & SHALLOWFORD,33.876989,-84.288342,,,,
47220,905756,SHALLOWFORD RD@WOODSIDE,0 SHALLOWFORD & WOODSIDE,33.874188,-84.290256,,,,
47228,905829,BUFORD HWY NE@BEVERLY HILLS DR,0 BUFORD & BEVERLY HILLS,33.882332,-84.290527,,,,
47230,905830,BUFORD HWY NE@4725,,33.879402,-84.292152,,,,
47246,905886,NORTHEAST EXPY@3355,,33.874607,-84.275673,,,,
47248,905879,NORTHEAST EXPY@WOODCOCK BLVD,0 NORTHEAST & WOODCOCK,33.875918,-84.274582,,,,
47258,906072,DRESDEN DR@2880,,33.875626,-84.277771,,,,
47268,906073,BUFORD HWY NE@CHAMBLEE DUNWOODY RD,0 BUFORD & CHAMBLEE DUNWOODY,33.888772,-84.286751,,,,
47290,905184,NEW PEACHTREE RD@5394,,33.890429,-84.301104,,,,
47292,905185,CHAMBLEE TUCKER RD@PRESIDENTIAL PK,0 CHAMBLEE TUCKER & PRESIDENTIAL,33.877807,-84.270681,,,,
47293,905186,CHAMBLEE TUCKER RD@STANTONDALE DR,0 CHAMBLEE TUCKER & STANTONDALE,33.880113,-84.265477,,,,
47298,905301,CHAMBLEE TUCKER RD@PRESIDENTIAL PKY,0 CHAMBLEE TUCKER & PRESUDENTIAL,33.877745,-84.271047,,,,
47300,905302,CHAMBLEE TUCKER RD@CUMBERLAND DR,0 CHAMBLEE TUCKER & CUMBERLAND,33.885455,-84.291161,,,,
47310,905369,CHAMBLEE TUCKER RD@STANTONDALE DR,0 CHAMBLEE TUCKER RD & STANTONDALE DR,33.880004,-84.26564,,,,
47312,905370,CHAMBLEE TUCKER RD@EMBRY CIR,0 CHAMBLEE TUCKER & EMBRY,33.882803,-84.259624,,,,
47326,905417,PEACHTREE RD@INGERSOLL RAND DR,0 PEACHTREE & INGERSOLL RAND,33.895366,-84.295413,,,,
47328,905418,SHALLOWFORD RD@WHISPERING HILLS DR,0 SHALLOWFORD & WHISPERING HILLS,33.876157,-84.288632,,,,
47330,905419,SHALLOWFORD RD@ORTEGA WAY,0 SHALLOWFORD & ORTEGA,33.881422,-84.285877,,,,
47336,905424,CHAMBLEE DUNWOODY RD@CLAIRVIEW DR,0 CHAMBLEE DUNWOODY & CLAIRVIEW,33.89027,-84.289109,,,,
47338,905425,SHALLOWFORD RD@BEVERLY HILLS DR,0 SHALLOWFORD & BEVERLY HILLS,33.8803,-84.287078,,,,
47340,905540,BUFORD HWY@CHAMBLEE TUCKER RD,0 BUFORD & CHAMBLEE TUCKER,33.885791,-84.288326,,,,
47342,905541,CHAMBLEE TUCKER RD@BUFORD HWY,0 CHAMBLEE TUCKER & BUFORD,33.885861,-84.287856,,,,
47344,905542,CHAMBLEE TUCKER RD@MERCER UNIVERSI,0 CHAMBLEE TUCKER & MERCER UNIVERSITY,33.87723,-84.269797,,,,
47346,905543,CHAMBLEE TUCKER RD@ASCOT CT,0 CHAMBLEE TUCKER & ASCOT,33.881729,-84.277209,,,,
47348,905651,CHAMBLEE TUCKER RD@ASCOT CT,0 CHAMBLEE TUCKER & ASCOT,33.881611,-84.277849,,,,
48002,905652,HENDERSON MILL RD@ASHWOOD LN,0 HENDERSON MILL & ASHWOOD,33.878971,-84.247971,,,,
48003,905653,HENDERSON MILL RD@CHAMBLEE TUCKER,0 HENDERSON MILL & CHAMBLEE TUCKER,33.881865,-84.245224,,,,
48004,905654,HENDERSON MILL RD@SHABROMAT WAY,0 HENDERSON MILL & SHABROMAT,33.877247,-84.251335,,,,
48008,905544,CHAMBLEE TUCKER RD@NORTHCREST RD,0 CHAMBLEE TUCKER & NORTHCREST,33.885445,-84.247637,,,,
48026,905896,CHAMBLEE TUCKER RD@NORTHCREST RD,0 CHAMBLEE TUCKER & NORTHCREST,33.884995,-84.247833,,,,
48028,905897,PRESIDENTIAL PKY@4001,,33.888725,-84.259766,,,,
48032,905776,PRESIDENTIAL DR@PRESIDENTIAL PKWY,0 PRESIDENTIAL DR & PRESIDENTIAL PKY,33.88681,-84.257827,,,,
48034,905777,CHAMBLEE TUCKER RD@BUCKEYE RD,0 CHAMBLEE TUCKER & BUCKEYE,33.885597,-84.255722,,,,
48040,905778,CHAMBLEE TUCKER RD@HENDERSON MILL,0 CHAMBLEE TUCKER & HENDERSON MILL,33.882801,-84.245178,,,,
48042,905779,HENDERSON MILL RD@CHAMBLEE TUCKER,0 HENDERSON MILL & CHAMBLEE TUCKER,33.881924,-84.245758,,,,
48044,905898,HENDERSON MILL RD@ASHWOOD LN,0 HENDERSON MILL & ASHWOOD,33.879612,-84.24762,,,,
48046,905899,HENDERSON MILL@3208,,33.879078,-84.248886,,,,
48048,905900,HENDERSON MILL RD@SHABROMAT WAY,0 HENDERSON MILL & SHABROMAT,33.87735,-84.251892,,,,
48050,905901,HENDERSON MILL RD@EVANS RD,0 HENDERSON MILL & EVANS,33.871742,-84.251259,,,,
48052,905780,FLOWERS RD@MERCER UNIVERSITY DR,0 FLOWERS & MERCER UNIVERSITY,33.875057,-84.256393,,,,
48054,905781,FLOWERS RD@MERCER UNIVERSITY DR,0 FLOWERS & MERCER UNIVERSITY,33.874992,-84.255883,,,,
48064,905782,PLEASANTDALE RD@4000,,33.899555,-84.24382,,,,
48066,905783,PLEASANTDALE RD@3930,,33.897444,-84.242843,,,,
48068,906021,PLEASANTDALE RD@3980,,33.895626,-84.241478,,,,
48070,905194,PLEASANTDALE RD@3810,,33.89502,-84.239662,,,,
48072,905195,PLEASANTDALE RD@3772,,33.894569,-84.237541,,,,
48073,905196,PLEASANTDALE RD@3754,,33.894638,-84.23687,,,,
48074,905197,PLEASANTDALE RD@3722,,33.893723,-84.235435,,,,
48075,906022,TUCKER NORCROSS RD@BRITT RD,0 TUCKER NORCROSS & BRITT,33.882928,-84.219542,,,,
48076,906023,TUCKER NORCROSS RD@CHAMBLEE TUCKER,0 TUCKER NORCROSS & CHAMBLEE TUCKER,33.880859,-84.218674,,,,
48078,906024,CHAMBLEE TUCKER RD@GLADNEY DR,0 CHAMBLEE TUCKER & GLADNEY,33.878517,-84.218704,,,,
48080,906025,CHAMBLEE TUCKER RD@MENLO DR,0 CHAMBLEE TUCKER & MENLO,33.875595,-84.218399,,,,
48081,905198,CHAMBLEE TUCKER RD@GLADNEY DR,0 CHAMBLEE TUCKER & GLADNEY,33.878395,-84.218102,,,,
48082,905199,CHAMBLEE TUCKER RD@MENLO DR,0 CHAMBLEE TUCKER RD & MENLO DR,33.875298,-84.218008,,,,
48084,905200,CHAMBLEE TUCKER RD@WEBB RD,0 CHAMBLEE TUCKER & WEBB,33.873223,-84.217574,,,,
48086,905201,PLEASANTDALE RD@4025,,33.899944,-84.243332,,,,
48088,906026,PLEASANTDALE RD@4021,,33.897019,-84.242262,,,,
48090,906027,PLEASANTDALE RD@3980,,33.896103,-84.241302,,,,
48092,906087,PLEASANTDALE RD@3810,,33.895531,-84.239937,,,,
48094,905320,PLEASANTDALE RD@3772,,33.894894,-84.237328,,,,
48096,905321,PLEASANTDALE RD@3722,,33.893711,-84.234634,,,,
48098,905322,PLEASANTDALE RD@VALLEY BLUFF WAY,0 PLEASANTDALE & VALLEY BLUFF,33.89222,-84.231728,,,,
48100,906124,PLEASANTDALE RD@VALLEY BLUFF WAY,0 PLEASANTDALE & VALLEY BLUFF,33.891651,-84.228996,,,,
48102,906125,PLEASANTDALE RD@3475,,33.892006,-84.228958,,,,
48104,906126,PLEASANTDALE RD@3515,,33.891663,-84.228104,,,,
48106,906127,PLEASANTDALE RD@3515,,33.890751,-84.228111,,,,
48108,905323,PLEASANTDALE RD@PLEASANTDALE PKY,0 PLEASANTDALE & PLEASANTDALE,33.890308,-84.227737,,,,
48110,905324,PLEASANTDALE RD@PLEASANTDALE PKY,0 PLEASANTDALE & PLEASANTDALE,33.890289,-84.227249,,,,
48112,905325,PLEASANTDALE RD@SPRING HARBOR LN,0 PLEASANTDALE & SPRING HARBOR,33.888649,-84.227058,,,,
48114,905326,PLEASANTDALE RD@SPRING HARBOR LN,0 PLEASANTDALE & SPRING HARBOR,33.889162,-84.226759,,,,
48116,906128,PLEASANTDALE RD@PLEASANT SHADE DR,0 PLEASANTDALE & PLEASANT SHADE,33.887222,-84.225624,,,,
48118,906129,PLEASANTDALE RD@PLEASANT SHADE DR,0 PLEASANTDALE & PLEASANT SHADE,33.8871,-84.224876,,,,
48120,906130,PLEASANTDALE RD@SHADOW WALK,0 PLEASANTDALE & SHADOW WALK,33.884769,-84.222649,,,,
48122,906131,PLEASANTDALE RD@SHADOW WALK LN,0 PLEASANTDALE & SHADOW WALK,33.885048,-84.221817,,,,
48124,905371,PLEASANTDALE RD@TUCKER NORCROSS RD,0 PLEASANTDALE & TUCKER NORCROSS,33.88438,-84.220589,,,,
48126,906160,PLEASANTDALE RD@TUCKER NORCROSS RD,0 PLEASANTDALE & TUCKER NORCROSS,33.883869,-84.220833,,,,
48127,906161,TUCKER NORCROSS RD@BRITT RD,0 TUCKER NORCROSS & BRITT,33.882515,-84.219854,,,,
48128,906162,PLEASANTDALE RD@VALLEY BLUFF WAY,0 PLEASANTDALE & VALLEY BLUFF,33.892705,-84.231277,,,,
48132,906163,MERCER UNIVERSITY DR@HENDERSON MIL,0 MERCER UNIVERSITY & HENDERSON MILL,33.874954,-84.25313,,,,
48134,906185,HENDERSON MILL RD @ MERCER UNIV DR,0 HENDERSON MILL RD & MERCER UNIVERSITY DR,33.875217,-84.252687,,,,
48138,906186,CHAMBLEE TUCKER RD @ N EMBRY CIR,0 CHAMBLEE TUCKER & EMBRY,33.882908,-84.261132,,,,
48140,906187,CHAMBLEE TUCKER RD@EMBRY CIR,0 CHAMBLEE TUCKER & EMBRY,33.883383,-84.259645,,,,
48142,906188,CHAMBLEE TUCKER RD@MERCER UNIVERSI,0 CHAMBLEE TUCKER & MERCER UNIVERSITY,33.878448,-84.268516,,,,
48144,906164,CHAMBLEE TUCKER RD@BUCKEYE RD,0 CHAMBLEE TUCKER & BUCKEYE,33.884303,-84.256725,,,,
48146,906165,FLOWERS RD@3042,,33.870566,-84.263303,,,,
48150,906167,CHAMBLEE TUCKER RD@BUCKEYE RD,0 CHAMBLEE TUCKER & BUCKEYE,33.88443,-84.257427,,,,
48151,906168,CHAMBLEE TUCKER RD@STRATFORD ARMS,0 CHAMBLEE TUCKER & STRATFORD ARMS,33.883031,-84.282142,,,,
48152,906189,CHAMBLEE TUCKER RD@MERCER UNIVERSI,0 CHAMBLEE TUCKER & MERCER UNIVERSITY,33.878604,-84.268809,,,,
48154,906190,CHAMBLEE TUCKER RD@STANTONDALE DR,0 CHAMBLEE TUCKER & STANTONDALE,33.879523,-84.267008,,,,
48160,906191,HENDERSON MILL RD@BOLERO DR,0 HENDERSON MILL & BOLERO,33.86585,-84.250879,,,,
48162,906243,CHAMBLEE TUCKER RD@STONECREST CT,0 CHAMBLEE TUCKER & STONECREST,33.885244,-84.250582,,,,
48164,906244,HENDERSON MILL RD@MERCER UNIVERSIT,0 HENDERSON MILL & MERCER UNIVERSITY,33.875555,-84.253142,,,,
48170,906245,CHAMBLEE TUCKER RD@3365,,33.885302,-84.255218,,,,
48190,906223,CHAMBLEE TUCKER RD@HENDERSON MILL,0 CHAMBLEE TUCKER & HENDERSON MILL,33.884094,-84.245931,,,,
48192,906246,PLEASANTDALE RD@3637,,33.892988,-84.232654,,,,
48194,906247,PLEASANTDALE RD@3637,,33.892771,-84.232717,,,,
48196,906248,CHAMBLEE TUCKER RD@FONTANA CT,0 CHAMBLEE TUCKER & FONTANA,33.874192,-84.217959,,,,
48198,906249,CHAMBLEE TUCKER RD@FONTANA CT,0 CHAMBLEE TUCKER & FONTANA,33.874155,-84.217517,,,,
49002,906225,LAWRENCEVILLE HWY @ OLD NORCROSS RD,0 LAWRENCEVILLE & OLD NORCROSS,33.856888,-84.207146,,,,
49004,906226,LAWRENCEVILLE HWY @ OLD NORCROSS RD,0 LAWRENCEVILLE & OLD NORCROSS,33.857379,-84.207416,,,,
49006,906227,LAWRENCEVILLE HWY @ COFER CIR,0 LAWRENCEVILLE & COFER,33.858994,-84.203354,,,,
49007,906250,LAWRENCEVILLE HWY @ OLD NORCROSS RD,0 LAWRENCEVILLE & OLD NORCROSS,33.858294,-84.204752,,,,
49008,906098,N ROYAL ATLANTA DR @ LAWRENCEVILLE,0 ROYAL ATLANTA & LAWRENCEVILLE,33.859814,-84.200356,,,,
49010,905275,N ROYAL ATLANTA DR @ LAWRENCEVILLE,0 N ROYAL ATLANTA DR & LAWRENCEVILLE HWY,33.8602,-84.200077,,,,
49012,905276,N ROYAL ATL DR @ TUCKERSTONE PKY,0 ROYAL ATLANTA & TUCKERSTONE,33.859344,-84.199013,,,,
49014,905277,N ROYAL ATLANTA DR @ 4667,,33.85928,-84.196999,,,,
49016,905278,N ROYAL ATLANTA DR @ 4707,,33.859303,-84.194489,,,,
49018,906099,MOUNTAIN IND BLVD @ TUCKERSTONE PKY,0 MOUNTAIN INDUSTRIAL & TUCKERSTONE,33.857063,-84.198334,,,,
49020,906100,MOUNTAIN INDUSTRIAL BLVD @ 2530,,33.857342,-84.195564,,,,
49022,906101,MOUNTAIN INDUSTRIAL BLVD @ 2558,,33.857568,-84.192877,,,,
49023,905206,S ROYAL ATLANTA DR @ 5044,,33.856125,-84.182882,,,,
49024,905279,N ROYAL ATL DR @ S ROYAL ATL DR,0 ROYAL ATLANTA & ROYAL ATLANTA,33.857038,-84.177687,,,,
49025,905280,N ROYAL ATLANTA DR @ COMMERCE PL,0 ROYAL ATLANTA & COMMERCE,33.858262,-84.183088,,,,
49026,905281,N ROYAL ATLANTA DR @ ROYAL PL,0 ROYAL ATLANTA & ROYAL,33.858288,-84.186104,,,,
49027,905282,S ROYAL ATLANTA DR @ 5088,,33.855955,-84.179933,,,,
49028,905207,NROYAL ATL DR @ MOUNTAIN IND BLVD,0 ROYAL ATLANTA & MOUNTAIN INDUSTRIAL,33.858906,-84.188477,,,,
49029,905208,S ROYAL ATL DR @ MOUNTAIN IND BLVD,0 ROYAL ATLANTA & MOUNTAIN INDUSTRIAL,33.857177,-84.190434,,,,
49030,905209,N ROYAL ATLANTA DR @ 4823,,33.859287,-84.191254,,,,
49032,905400,MOUNTAIN IND BLVD @ GRANITE DR,0 N MOUNTAIN INDUSTRIAL BLVD NE & N GRANITE DR NE,33.844955,-84.200801,,,,
49034,905401,MOUNTAIN INDUSTRIAL BLVD @ 2145,2145 N MOUNTAIN INDUSTRIAL BLVD NE,33.847103,-84.200805,,,,
49036,905445,HUGH HOWELL RD @ MOUNTAIN IND BLVD,0 N HUGH HOWELL RD NE & MTN IND BLVD,33.849136,-84.201484,,,,
49038,905516,HUGH HOWELL RD @ TUCKER IND RD,0 HUGH HOWELL RD & TUCKER INDUSTRIAL RD,33.849114,-84.203153,,,,
49040,905517,HUGH HOWELL RD @ FULLER WAY,,33.850191,-84.206461,,,,
49052,905519,S ROYAL ATLANTA DR @ 4950,,33.856623,-84.188704,,,,
50004,905447,NORTHSIDE DR NW@PACES FERRY RD NW,0 NORTHSIDE & PACES FERRY,33.847816,-84.429512,,,,
50011,905521,HOWELL MILL RD@3193,,33.841698,-84.42756,,,,
50018,905751,NORTHSIDE PKY NW@BEECHWOOD DR NW,0 NORTHSIDE & BEECHWOOD,33.853765,-84.430901,,,,
50021,905682,NORTHSIDE PKY NW@DR NW3487,,33.850322,-84.430571,,,,
50022,905683,NORTHSIDE PKY NW@3487,,33.850212,-84.430214,,,,
50024,905684,NORTHSIDE PKY NW @ PACES FERRY RD,0 NORTHSIDE & PACES FERRY,33.847923,-84.429985,,,,
50028,905753,OLD MILTON PKWY @ HAYNES BRIDGE RD,OLD MILTON PKY & HAYNES BRIDGE RD,34.071028,-84.294049,,,,
50038,905754,NORTHSIDE PKY @ HOWELL MILL RD,0 NORTHSIDE & HOWELL MILL,33.84612,-84.4281,,,,
50050,905803,NORTHSIDE PKY@4200,4200 NORTHSIDE PKY NW,33.863909,-84.446239,,,,
51002,905927,PIEDMONT RD NE@ROSWELL RD NE,0 PIEDMONT & ROSWELL,33.854322,-84.382277,,,,
51058,905998,PEELER RD@VILLAGE MILL RD,0 PEELER & VILLAGE MILL,33.931065,-84.309715,,,,
51064,905999,ROSWELL RD NE @ POWERS FERRY RD,0 ROSWELL & POWERS FERRY,33.855961,-84.382446,,,,
51066,906000,ROSWELL RD NE @ IVY PKWY NE,0 ROSWELL & IVY,33.857521,-84.381584,,,,
51068,906001,ROSWELL RD NE @ 3754,,33.85804,-84.381599,,,,
51069,905928,PIEDMONT RD NE@HABERSHAM RD NE,0 PIEDMONT & HABERSHAM,33.853406,-84.38188,,,,
52002,905289,PIEDMONT RD NE@TOWER PLACE DR,PIEDMONT RD NE & TOWER PLACE DR NE,33.846081,-84.372483,,,,
52004,905290,PIEDMONT RD NE@3405,,33.847588,-84.373283,,,,
52008,905172,PIEDMONT RD NE@3525,,33.85109,-84.378786,,,,
52010,905523,PIEDMONT RD NE@3565,,33.85205,-84.37981,,,,
52012,905524,PIEDMONT RD NE@HABERSHAM RD,0 PIEDMONT & HABERSHAM,33.852848,-84.38073,,,,
52014,905407,PIEDMONT RD NE@3566,3566 PIEDMONT RD NE & GA-237,33.850911,-84.379082,,,,
52016,905408,PIEDMONT RD NE@3500,3500 PIEDMONT RD NE & GA-237,33.849614,-84.377089,,,,
52020,905409,PIEDMONT RD NE@MATHIESON DR NE,0 PIEDMONT & MATHIESON,33.848339,-84.374542,,,,
52022,905410,PIEDMONT RD NE@TOWER PLACE DR NE,3360 PIEDMONT RD NE & TOWER PLACE DR NE,33.846233,-84.372657,,,,
52025,905526,PIEDMONT RD NE@PEACHTREE RD NE,0 PIEDMONT & PEACHTREE,33.843808,-84.371584,,,,
52026,905527,ROSWELL RD NE @ 3833,,33.858925,-84.380707,,,,
52028,905528,ROSWELL RD NE @ SHELDON DR NE,0 ROSWELL & SHELDON,33.861259,-84.380379,,,,
52030,905411,ROSWELL RD NE @ LAND O LAKES DR NE,0 ROSWELL RD NE & LAND O LAKES DR NE,33.862867,-84.38007,,,,
52032,905412,ROSWELL RD NE @ LAKEMOORE DR NE,0 ROSWELL RD NE & LAKEMOORE DR NE,33.864755,-84.380615,,,,
52034,905413,ROSWELL RD NE @ 4090,,33.867591,-84.380838,,,,
52036,905414,ROSWELL RD NE @ INTERLOCHEN DR NE,0 ROSWELL & INTERLOCHEN,33.868607,-84.38084,,,,
52038,905529,ROSWELL RD NE @ RICKENBACKER DR NE,0 ROSWELL & RICKENBACKER,33.869961,-84.381004,,,,
52042,905642,LENOX RD NE@WRIGHT AVE NE,0 LENOX & WRIGHT,33.846535,-84.35923,,,,
52046,905643,LENOX RD NE@WRIGHT AVE NE,0 LENOX & WRIGHT,33.846653,-84.359589,,,,
52048,905758,LENOX RD NE@KINGSBORO RD NE,0 LENOX & KINGSBORO,33.848343,-84.360764,,,,
52056,905759,LENOX RD NE@KINGSBORO RD NE,0 LENOX & KINGSBORO,33.848568,-84.360573,,,,
52058,905760,PIEDMONT RD NE@3558,,33.851984,-84.380204,,,,
52062,905761,ROSWELL RD NE @ INTERLOCHEN DR NE,0 ROSWELL & INTERLOCHEN,33.868679,-84.381348,,,,
52064,905644,ROSWELL RD NE @ RICKENBACKER,0 ROSWELL RD NE & RICKENBACKER DR NE,33.870295,-84.381109,,,,
52066,905645,ROSWELL RD NE @ LE BRUN RD,0 ROSWELL & LE BRUN,33.860081,-84.380753,,,,
52068,905646,ROSWELL RD NE @ LE BRUN RD NE,0 ROSWELL & LE BRUN,33.861309,-84.380669,,,,
52070,905647,ROSWELL RD NE @ LAUREL FOREST CIR,0 ROSWELL & LAUREL FOREST,33.86252,-84.38057,,,,
52072,905762,ROSWELL RD NE @ LAKEMOORE DR,0 ROSWELL & LAKEMOORE,33.86456,-84.38091,,,,
52074,905763,ROSWELL RD NE @ 4100,0 ROSWELL & LAKEMOORE,33.867149,-84.381386,,,,
52076,905764,PEACHTREE RD NE@LENOX RD NE,0 PEACHTREE & LENOX,33.850174,-84.362045,,,,
52078,905765,PEACHTREE RD NE@LENOX RD,0 PEACHTREE & LENOX,33.850395,-84.362343,,,,
52080,905648,PEACHTREE RD NE@LENOX RD NE,0 PEACHTREE & LENOX,33.849046,-84.363944,,,,
52082,905882,PEACHTREE RD NE @ 3414,,33.849373,-84.363655,,,,
52084,905887,PEACHTREE RD NE@STRATFORD RD NE,0 PEACHTREE & STRATFORD,33.848801,-84.366417,,,,
52086,905888,PEACHTREE RD NE@STRATFORD RD NE,0 PEACHTREE & STRATFORD,33.848236,-84.36631,,,,
52088,905889,PEACHTREE  RD NE@3340,3340 PEACHTREE  RD  NE,33.847874,-84.367296,,,,
52090,905890,PEACHTREE  RD NE@3340,3340 PEACHTREE  RD  NE,33.847366,-84.367542,,,,
52092,906006,PEACHTREE RD@HIGHLAND DR,0 PEACHTREE & HIGHLAND,33.845641,-84.368791,,,,
52096,906008,PEACHTREE RD NE@PIEDMONT RD NE,0 PEACHTREE & PIEDMONT,33.843861,-84.371162,,,,
52098,905891,PEACHTREE RD@PIEDMONT RD,0 PEACHTREE & PIEDMONT,33.843456,-84.371445,,,,
52150,905182,PEACHTREE RD NE@OAK VALLEY RD NE,0 PEACHTREE & OAK VALLEY,33.851051,-84.361031,,,,
52154,905188,PEACHTREE RD@ROXBORO RD NE,0 PEACHTREE RD NE & ROXBORO RD NE,33.853944,-84.357705,,,,
52156,905189,PEACHTREE RD@3669,,33.853863,-84.355431,,,,
52158,905190,PEACHTREE RD NE@CANTRELL RD NE,0 PEACHTREE & CANTRELL,33.854279,-84.35405,,,,
52160,905303,PEACHTREE RD NE@KINGSBORO RD NE,0 PEACHTREE & KINGSBORO,33.855057,-84.351776,,,,
52162,905304,PEACHTREE RD NE@CLUB DR NE,0 PEACHTREE & CLUB,33.856785,-84.348846,,,,
52164,905305,PEACHTREE RD@CLUB DR,0 PEACHTREE & CLUB,33.85752,-84.346842,,,,
52166,905306,PEACHTREE RD@BELLAIRE DR,0 PEACHTREE & BELLAIRE,33.858025,-84.346931,,,,
52168,905236,PEACHTREE RD@CLUB DR,0 PEACHTREE & CLUB,33.857334,-84.349419,,,,
52170,905237,PEACHTREE RD@VERMONT RD,0 PEACHTREE & VERMONT,33.855526,-84.352348,,,,
52172,905238,PEACHTREE RD@NARMORE DR,0 PEACHTREE & NARMORE,33.855007,-84.354172,,,,
52174,905426,PEACHTREE RD@3660,,33.854138,-84.356283,,,,
52178,905421,PEACHTREE RD@WIEUCA RD,0 PEACHTREE & WIEUCA,33.852966,-84.360718,,,,
52182,905422,PEACHTREE RD NE@MAPLE DR NE,0 PEACHTREE & MAPLE,33.84304,-84.372505,,,,
52220,905428,LENOX RD NE@FERNCLIFF RD NE,0 LENOX & FERNCLIFF,33.843281,-84.357819,,,,
52222,905429,PIEDMONT RD NE@PEACHTREE RD NE,0 PIEDMONT & PEACHTREE,33.84423,-84.371364,,,,
52234,905478,PEACHTREE RD@PEACHTREE DUNWOODY RD,0 PEACHTREE & PEACHTREE DUNWOODY,33.854163,-84.357725,,,,
52500,905666,LENOX STATION,LENOX RD  NE & E PACES FERRYRD  NE,33.845015,-84.357791,,,,
53002,905662,BRIARWOOD RD@1433,,33.84958,-84.33204,,,,
53010,905712,N DRUID HILLS RD @ CHILDERS RD,0 DRUID HILLS & CHILDERS,33.836922,-84.342857,,,,
53014,905714,N DRUID HILLS RD @ CURTIS DR,0 DRUID HILLS & CURTIS,33.843243,-84.339981,,,,
53016,905715,N DRUID HILLS RD NE @ CURTIS DR,0 N DRUID HILLS RD NE & CURTIS DR NE,33.843199,-84.340755,,,,
53020,905784,N DRUID HILLS RD @ LENOX PARK,0 DRUID HILLS & LENOX PARK,33.845104,-84.339478,,,,
53022,905832,N DRUID HILLS RD @ BROOKSHIRE,0 DRUID HILLS & BROOKSHIRE,33.846649,-84.338966,,,,
53024,905833,N DRUID HILLS RD @ DRUID KNOLL DR,0 DRUID HILLS & DRUID KNOLL,33.841534,-84.342148,,,,
53025,905903,N DRUID HILLS RD @ GAIL DR,0 DRUID HILLS & GAIL,33.840424,-84.342499,,,,
53026,905904,N DRUID HILLS RD @ WRIGHT AVE,0 DRUID HILLS & WRIGHT,33.841801,-84.342262,,,,
53028,905905,N DRUID HILLS RD @ GOODWIN RD,0 DRUID HILLS & GOODWIN,33.839884,-84.343053,,,,
53030,905957,N DRUID HILLS RD NE @ SYLVAN CIR NE,0 DRUID HILLS & SYLVAN,33.856664,-84.339763,,,,
53031,905958,N DRUID HILLS RD NE @ STANDARD DR,0 DRUID HILLS & STANDARD,33.85678,-84.34027,,,,
53034,905959,N DRUID HILLS RD NE @ THORNWELL DR,0 DRUID HILLS & THORNWELL,33.854878,-84.339577,,,,
53036,905960,N DRUID HILLS RD NE @ SYLVAN CIR NE,0 DRUID HILLS & THORNWELL,33.854743,-84.339208,,,,
53038,905906,N DRUID HILLS RD @ PINE GROVE AVE,0 DRUID HILLS & PINE GROVE,33.852579,-84.3393,,,,
53040,905907,N DRUID HILLS RD @ PINE GROVE AVE,0 DRUID HILLS & PINE GROVE,33.85229,-84.33889,,,,
53042,905908,N DRUID HILLS RD @ COLONIAL DR,0 DRUID HILLS & COLONIAL,33.850916,-84.3392,,,,
53044,905956,N DRUID HILLS RD NE@ BRIARWOOD RD,0 DRUID HILLS & BRIARWOOD,33.85296,-84.33907,,,,
53045,905961,N DRUID HILLS RD @ BROOKSHIRE LN,0 DRUID HILLS & BROOKSHIRE,33.846909,-84.33931,,,,
53052,905962,BRIARWOOD RD@BRIARWOOD HILLS,0 BRIARWOOD RD NE & BRIARWOOD HILLS DR NE,33.851057,-84.334225,,,,
53054,905963,BRIARWOOD RD@COOSAWATTEE DR,0 BRIARWOOD & COOSAWATTEE,33.85084,-84.33377,,,,
53056,905964,PEACHTREE RD NE@KENDRICK RD NE,0 PEACHTREE & KENDRICK,33.86738,-84.33592,,,,
53058,906074,PEACHTREE RD NE@OSBORNE RD NE,0 PEACHTREE & OSBORNE,33.865507,-84.337198,,,,
53070,905205,PEACHTREE RD NE @ KENDRICK RD NE,0 PEACHTREE RD NE & KENDRICK RD NE,33.867605,-84.335392,,,,
53074,905256,BUFORD HWY NE@CLIFF VALLEY WAY,0 BUFORD & CLIFF VALLEY,33.842968,-84.328323,,,,
53076,905257,BUFORD HWY NE@BRIARWOOD RD,0 BUFORD & BRIARWOOD,33.843678,-84.327499,,,,
53078,905258,BUFORD HWY NE@BRIARWOOD RD,0 BUFORD & BRIARWOOD,33.84457,-84.327271,,,,
53079,905259,BRIARWOOD RD NE@BUFORD HWY NE,0 BRIARWOOD & BUFORD,33.84446,-84.32777,,,,
53082,905252,BUFORD HWY NE@3446,3446 GA-13 & BUFORD HWY NE,33.845222,-84.326258,,,,
53084,905253,BUFORD HWY NE@AFTON,0 BUFORD & AFTON,33.847529,-84.323539,,,,
53088,905255,BUFORD HWY NE@3510,,33.84851,-84.32288,,,,
53090,905260,BUFORD HWY NE@3557,,33.849155,-84.321236,,,,
53092,905261,BUFORD HWY NE@3557,,33.849625,-84.321701,,,,
53094,905372,BUFORD HWY NE@3567,,33.850159,-84.320221,,,,
53096,905373,BUFORD HWY NE@3610,,33.85054,-84.32061,,,,
53098,905374,BUFORD HWY NE@3649,,33.851078,-84.319489,,,,
53100,906132,BUFORD HWY NE@3658,,33.85146,-84.31963,,,,
53102,906133,BUFORD HWY NE@3691,3683 BUFORD,33.85228,-84.317955,,,,
53104,906134,BUFORD HWY NE@3700,,33.852745,-84.318375,,,,
53108,906140,BUFORD HWY NE@DREW VALLEY RD,0 BUFORD & DREW VALLEY,33.854744,-84.316284,,,,
53110,906141,BUFORD HWY NE@DREW VALLEY RD,0 BUFORD & DREW VALLEY,33.853943,-84.316017,,,,
53112,906142,BUFORD HWY NE@3814,,33.855003,-84.314774,,,,
53114,906143,BUFORD HWY NE@3814,,33.85544,-84.31529,,,,
53116,906136,BUFORD HWY NE@CLAIRMONT TER,0 BUFORD & CLAIRMONT,33.856339,-84.314362,,,,
53118,906137,BUFORD HWY NE@CLAIRMONT TER,0 BUFORD & CLAIRMONT,33.85588,-84.31379,,,,
53120,906138,BUFORD HWY NE@CLAIRMONT RD,0 BUFORD & CLAIRMONT,33.857589,-84.312285,,,,
53122,906139,BUFORD HWY NE@CLAIRMONT RD NE,0 BUFORD & CLAIRMONT,33.858631,-84.311584,,,,
53126,906192,BUFORD HWY NE@DERING CIR,0 BUFORD & DERING,33.860481,-84.308853,,,,
53128,906169,BUFORD HWY NE@4075,,33.861832,-84.30757,,,,
53130,906171,BUFORD HWY NE@DERING CIR,0 BUFORD HWY & DERING CIR NE,33.860928,-84.308655,,,,
53134,906195,CLAIRMONT RD NE@CANNON FARM HILL RD,0 CLAIRMONT & CANNON FARM HILL,33.843201,-84.314766,,,,
53136,906196,CLAIRMONT RD@CLAIRMONT WAY,0 CLAIRMONT RD NE & CLAIRMONT WAY NE,33.845625,-84.315341,,,,
53138,906201,CLAIRMONT RD@CLAIRMONT WAY,0 CLAIRMONT & CLAIRMONT,33.846371,-84.315674,,,,
53140,906202,CLAIRMONT RD@WILMONT DR,0 CLAIRMONT & WILMONT,33.850277,-84.315826,,,,
53142,906203,CLAIRMONT RD@CLAIRMONT NORTH  NE,0 CLAIRMONT & CLAIRMONT NORTH,33.852222,-84.314934,,,,
53144,906204,CLAIRMONT RD @ TANGLEWOOD CIR,0 CLAIRMONT RD & TANGLEWOOD CIR NE,33.854691,-84.313065,,,,
53146,906197,CLAIRMONT RD@CLAIRMONT TER,0 CLAIRMONT & CLAIRMONT,33.855806,-84.312631,,,,
53148,906198,CLAIRMONT RD@BUFORD,0 CLAIRMONT & BUFORD,33.858398,-84.311981,,,,
53172,906231,PEACHTREE RD NE@BROOKHAVEN DR NE,0 PEACHTREE RD NE & BROOKHAVEN DR NE,33.857527,-84.345308,,,,
53174,906254,PEACHTREE RD NE@COLONIAL DR NE,0 PEACHTREE RD NE & COLONIAL DR NE,33.857509,-84.343414,,,,
53175,906255,PEACHTREE RD@DRUID HILLS RD,0 PEACHTREE & DRUID HILLS,33.858074,-84.341852,,,,
53176,906256,PEACHTREE RD NE@ N DRUID HILLS RD,GA-141 & N DRUID HILLS RD NE,33.859129,-84.340475,,,,
53182,906257,PEACHTREE RD NE @ OSBORNE RD NE,0 PEACHTREE & OSBORNE,33.86506,-84.33705,,,,
53186,906262,PEACHTREE RD NE @ CROSS KEYS DR NE,0 PEACHTREE & CROSS KEYS,33.86945,-84.334007,,,,
53188,906263,PEACHTREE RD@CROSS KEYS DR,0 PEACHTREE RD NE & CROSS KEYS DR NE,33.86961,-84.334032,,,,
53196,906264,PEACHTREE RD@BROOKHAVEN DR,0 PEACHTREE & BROOKHAVEN,33.857719,-84.344887,,,,
53252,905327,CLAIRMONT RD @ CENTURY PL,0 CLAIRMONT RD NE & CENTURY PL NE,33.848104,-84.315439,,,,
53254,905328,CLAIRMONT RD@MCJENKIN DR,0 CLAIRMONT RD NE & MCJENKINS DR NE,33.850395,-84.315395,,,,
53256,905329,CLAIRMONT RD@CLAIRMONT NORTH  NE,0 CLAIRMONT & CLAIRMONT NORTH,33.852211,-84.314507,,,,
53258,905211,CLAIRMONT RD@TANGLEWOOD CIR,0 CLAIRMONT & TANGLEWOOD,33.854449,-84.313047,,,,
53260,905212,CLAIRMONT RD@CLAIRMONT TER,0 CLAIRMONT & CLAIRMONT,33.855703,-84.312244,,,,
53262,905213,CLAIRMONT RD@BUFORD HWY,0 CLAIRMONT & BUFORD,33.858057,-84.311705,,,,
53267,905331,N DRUID HILLS RD @ CLIFF VALLEY WAY,,33.844622,-84.338926,,,,
53306,905457,BRIARWOOD RD@BUFORD HWY,0 BRIARWOOD & BUFORD,33.84538,-84.32756,,,,
53308,905573,BRIARWOOD RD@KEYS CROSSING,0 BRIARWOOD & KEYS CROSSING,33.84701,-84.3283,,,,
53310,905574,BRIARWOOD RD@PINE CONE LN,0 BRIARWOOD & PINE CONE,33.84797,-84.32928,,,,
53312,905575,BRIARWOOD RD@BRIARWOOD WAY,0 BRIARWOOD RD NE & BRIARWOOD WAY NE,33.848972,-84.330568,,,,
53320,905804,BRIARWOOD RD@ 1322,1322 BRIARWOOD RD NE,33.852471,-84.335989,,,,
53326,905805,BRIARWOOD RD@1322,0 BRIARWOOD & BRIARWOOD HILLS,33.85167,-84.33551,,,,
53328,905806,BRIARWOOD RD@ BRIARWOOD BLUFF,0 BRIARWOOD & BRIARWOOD,33.849277,-84.332451,,,,
53330,905690,BRIARWOOD RD@BRIARWOOD WAY,0 BRIARWOOD RD NE & BRIARWOOD WAY NE,33.848892,-84.330546,,,,
53332,905691,BRIARWOOD RD NE@PINE CONE LN NE,0 BRIARWOOD & PINE CONE,33.84787,-84.329697,,,,
53334,905692,BRIARWOOD RD@KEYS CROSSING,BRIARWOOD RD NE & KEYS CROSSING DR NE,33.847111,-84.328511,,,,
53336,905693,BRIARWOOD RD NE@BUFORD HWY,0 BRIARWOOD & BUFORD,33.845121,-84.327805,,,,
53386,905696,BUFORD HWY NE@BRIARWOOD RD,0 BUFORD & BRIARWOOD,33.845547,-84.325615,,,,
53500,905936,PEACHTREE RD NE@4047,,33.859928,-84.33922,,,,
53516,906055,N DRUID HILLS RD @ COLONIAL DR,0 DRUID HILLS & COLONIAL,33.85047,-84.338695,,,,
53518,906056,BRIARWOOD RD@DRUID HILLS RD,0 BRIARWOOD & DRUID HILLS,33.85291,-84.33862,,,,
53520,905940,CLAIRMONT RD @ CENTURY PL,0 CLAIRMONT RD NE & CENTURY PL NE,33.849232,-84.315623,,,,
53900,905697,PEACHTREE RD NE@4047,4047 PEACHTREE RDNE,33.86025,-84.339147,,,,
54024,905820,BUFORD HWY NE@4203,,33.864822,-84.303986,,,,
54026,905173,BUFORD HWY NE@PLASTER RD,0 BUFORD & PLASTER,33.865654,-84.303093,,,,
54046,905292,SHALLOWFORD RD@FLAIR KNOLL DR,0 SHALLOWFORD & FLAIR KNOLL,33.858082,-84.283357,,,,
54048,905293,SHALLOWFORD RD@FLAIR KNOLL DR,0 SHALLOWFORD & FLAIR KNOLL,33.858233,-84.28401,,,,
54070,906011,BRIARCLIFF RD@OAKAWANA DR,0 BRIARCLIFF & OAKAWANA,33.843281,-84.29171,,,,
54072,906012,BRIARCLIFF RD@OAK GROVE RD,0 BRIARCLIFF RD NE & OAK GROVE RD NE,33.845458,-84.286259,,,,
54074,905942,BRIARCLIFF RD@OAK GROVE RD,0 BRIARCLIFF & OAK GROVE,33.845676,-84.285329,,,,
54076,905943,BRIARCLIFF RD@WOODWARDIA RD,0 BRIARCLIFF & WOODWARDIA,33.846676,-84.283905,,,,
54078,905944,BRIARCLIFF RD@BRIARLAKE RD,0 BRIARCLIFF & BRIARLAKE,33.849057,-84.28326,,,,
54080,905945,BRIARCLIFF RD@SUNRISE DR,0 BRIARCLIFF & SUNRISE,33.853271,-84.281807,,,,
54082,906013,SHALLOWFORD RD@MELINDA DR,0 SHALLOWFORD & MELINDA,33.855598,-84.281631,,,,
54084,906014,SHALLOWFORD RD NE@BRADFORD SQ NE,0 SHALLOWFORD RD NE & BRADFORD SQ NE,33.861353,-84.286403,,,,
54086,906060,SHALLOWFORD RD@BRIARLAKE CT,0 SHALLOWFORD & BRIARLAKE,33.862728,-84.286919,,,,
54088,906061,SHALLOWFORD RD@FRONTIER TRL,0 SHALLOWFORD & FRONTIER,33.865885,-84.289508,,,,
54092,905946,SHALLOWFORD RD@DRESDEN DR,0 SHALLOWFORD & DRESDEN,33.869526,-84.28997,,,,
54094,905947,SHALLOWFORD RD@2868,,33.871453,-84.290707,,,,
54096,905948,SHALLOWFORD RD@DRESDEN DR,0 SHALLOWFORD & DRESDEN,33.870501,-84.290647,,,,
54098,905949,SHALLOWFORD RD@2728,,33.86692,-84.290199,,,,
54100,906062,SHALLOWFORD RD@FRONTIER TRL,0 SHALLOWFORD & FRONTIER,33.866255,-84.290058,,,,
54102,905530,SHALLOWFORD RD@BRIARLAKE CT,0 SHALLOWFORD & BRIARLAKE,33.862595,-84.287436,,,,
54104,905531,SHALLOWFORD RD@LAKE FLAIR CT,0 SHALLOWFORD & LAKE FLAIR,33.85959,-84.285079,,,,
54108,905415,SHALLOWFORD RD@MELINDA DR,0 SHALLOWFORD & MELINDA,33.855954,-84.282272,,,,
54110,905416,BRIARCLIFF RD@RAINTREE DR,0 BRIARCLIFF & RAINTREE,33.852928,-84.282982,,,,
54112,905461,BRIARCLIFF RD@CIRCLEWOOD RD,0 BRIARCLIFF & CIRCLEWOOD,33.850796,-84.2836,,,,
54114,905462,BRIARCLIFF RD@WOODWARDIA RD,0 BRIARCLIFF & WOODWARDIA,33.84728,-84.284202,,,,
54116,905533,BRIARCLIFF RD@HERITAGE DR,0 BRIARCLIFF & HERITAGE,33.845139,-84.287933,,,,
54118,905534,BRIARCLIFF RD@BRIARWILLOW DR,0 BRIARCLIFF & BRIARWILLOW,33.844521,-84.289107,,,,
54120,905535,BUFORD HWY NE@BRAGG ST,0 BUFORD & BRAGG,33.869253,-84.299548,,,,
54124,905463,BUFORD HWY NE@PLASTER RD,0 BUFORD & PLASTER,33.865248,-84.304073,,,,
54128,905465,BUFORD HWY NE@4075,,33.861897,-84.308121,,,,
54132,905466,I-85 ACCESS RD@CENTURY BLVD NE,0 I-85 ACCESS & CENTURY,33.847752,-84.304855,,,,
54134,905239,I-85 ACCESS RD@CENTURY BLVD,0 I-85 ACCESS & CENTURY,33.846251,-84.30585,,,,
54136,905307,I-85 ACCESS RD@CENTURY BLVD NE,0 I-85 ACCESS & CENTURY,33.845127,-84.306496,,,,
54138,905308,NORTHEAST EXPY@3001,,33.86595,-84.28636,,,,
54140,905309,NORTHEAST EXPY@COLONIAL WAY,,33.868515,-84.283524,,,,
54142,905310,NORTHEAST EXPY@3185,,33.870319,-84.280792,,,,
54144,905240,CLAIRMONT RD@BUFORD HWY,0 CLAIRMONT & BUFORD,33.859264,-84.311215,,,,
54148,905243,CLAIRMONT RD@SKYLAND RD,0 CLAIRMONT & SKYLAND,33.859688,-84.310799,,,,
54150,905357,CLAIRMONT RD@RAVEN HILL DR,0 CLAIRMONT & RAVEN HILL,33.86155,-84.30968,,,,
54152,905358,CLAIRMONT RD@CANMONT DR,0 CLAIRMONT & CANMONT,33.86312,-84.30938,,,,
54154,905359,CLAIRMONT RD@DRESDEN DR,0 CLAIRMONT & DRESDEN,33.8652,-84.30931,,,,
54156,905360,CLAIRMONT RD@BRAGG ST,0 CLAIRMONT & BRAGG,33.867558,-84.309372,,,,
54158,905244,CLAIRMONT RD@YOUNG RD,0 CLAIRMONT & YOUNG,33.868889,-84.309349,,,,
54160,905245,CLAIRMONT RD@YOUNG RD,0 CLAIRMONT & YOUNG,33.868954,-84.309715,,,,
